     2.10           OBSERVATION DATA    G (GPS)             RINEX VERSION / TYPE
JPS2RIN 1.05        RUN BY              19-DEC-01 19:32     PGM / RUN BY / DATE
build August 8, 2000                                        COMMENT
RUN BY;COMMENT;MARKER NAME;MARKER NUMBER;OBSERVER;AGENCY;   COMMENT
ANT #;ANT TYPE - You can set in profile.                    COMMENT
kai19a0001.jps                                              COMMENT
Site                                                        MARKER NAME
                                                            MARKER NUMBER
OBSERVER            AGENCY                                  OBSERVER / AGENCY
MT300402820         JPS EUROCARD        2.2 Apr,25,2001 r   REC # / TYPE / VERS
kai19a0001          -Unknown-                               ANT # / TYPE
  3427849.9403   603878.7148  5326830.5034                  APPROX POSITION XYZ
        0.0000        0.0000        0.0000                  ANTENNA: DELTA H/E/N
     1     1                                                WAVELENGTH FACT L1/2
     7    L1    L2    C1    P1    P2    D1    D2            # / TYPES OF OBSERV
  2001    12    19    14    50    0.0000000     GPS         TIME OF FIRST OBS
  2001    12    19    14    54   59.0000000     GPS         TIME OF LAST OBS
     1.000                                                  INTERVAL
    13                                                      LEAP SECONDS
     9                                                      # OF SATELLITES
   G 1   300   300   300   300   300   300   300            PRN / # OF OBS
   G 5   300   300   300   300   300   300   300            PRN / # OF OBS
   G 6   300   300   300   300   300   300   300            PRN / # OF OBS
   G10   300   300   300   300   300   300   300            PRN / # OF OBS
   G17   300   300   300   300   300   300   300            PRN / # OF OBS
   G24   300   300   300   300   300   300   300            PRN / # OF OBS
   G25   300   300   300   300   300   300   300            PRN / # OF OBS
   G29   216     0   216     0     0   216     0            PRN / # OF OBS
   G30   300   300   300   300   300   300   300            PRN / # OF OBS
                                                            END OF HEADER
 01 12 19 14 50  0.0000000  0  8G10G25G30G 5G 6G17G24G 1            
 132471063.001   103224230.3014   25208406.818 5  25208405.60941  25208412.01341
      2678.560        2087.206  
 114723210.450    89394723.6874   21831099.654 8  21831099.57845  21831103.70245
       563.701         439.253  
 109250350.560    85130160.0404   20789650.095 8  20789650.33145  20789653.46046
     -2188.482       -1705.307  
 123708675.184    96396380.3244   23540978.056 6  23540976.36142  23540981.34642
     -3699.863       -2882.961  
 108706483.534    84706364.4984   20686154.114 8  20686153.16646  20686156.62546
       522.033         406.800  
 135074774.028   105253087.9004   25703875.417 6  25703873.51141  25703884.49341
      3452.847        2690.550  
 121569544.897    94729537.2734   23133913.742 7  23133913.98243  23133919.40543
     -2252.980       -1755.577  
 130947307.852   102036872.5674   24918444.982 6  24918444.54942  24918450.68042
      1350.660        1052.415  
 01 12 19 14 50  1.0000000  0  8G10G25G30G 5G 6G17G24G 1            
 132468384.055   103222142.8064   25207898.461 5  25207895.38141  25207902.92241
      2678.530        2087.125  
 114722646.706    89394284.4044   21830992.726 8  21830992.27545  21830996.53845
       563.237         438.893  
 109252538.930    85131865.2684   20790066.725 8  20790066.75645  20790069.87545
     -2188.902       -1705.629  
 123712374.753    96399263.1074   23541682.714 6  23541681.32342  23541685.58742
     -3699.939       -2883.019  
 108705961.389    84705957.6304   20686054.691 8  20686053.81646  20686057.30146
       521.612         406.461  
 135071320.624   105250396.9664   25703217.373 6  25703217.35541  25703229.19241
      3453.393        2690.835  
 121571797.775    94731292.7574   23134342.827 7  23134342.68343  23134348.47443
     -2253.260       -1755.798  
 130945957.090   102035820.0174   24918187.929 6  24918187.59542  24918194.22142
      1350.353        1052.215  
 01 12 19 14 50  2.0000000  0  8G10G25G30G 5G 6G17G24G 1            
 132465705.769   103220055.8484   25207389.414 5  25207384.59141  25207392.41941
      2678.452        2087.063  
 114722083.920    89393845.8764   21830885.346 8  21830885.11945  21830889.33345
       562.450         438.280  
 109254728.099    85133571.1124   20790483.237 8  20790483.16145  20790486.46145
     -2189.370       -1706.001  
 123716074.874    96402146.3234   23542386.605 6  23542386.09742  23542389.28142
     -3700.192       -2883.258  
 108705440.095    84705551.4324   20685955.274 7  20685954.47745  20685958.14046
       521.037         405.985  
 135067867.528   105247706.2494   25702560.982 6  25702560.06641  25702571.47941
      3453.120        2690.710  
 121574051.562    94733048.9584   23134772.050 7  23134771.93443  23134777.04843
     -2254.048       -1756.385  
 130944607.237   102034768.1824   24917931.319 6  24917930.39542  24917936.28742
      1349.625        1051.652  
 01 12 19 14 50  3.0000000  0  8G10G25G30G 5G 6G17G24G 1            
 132463027.635   103217968.9964   25206878.364 5  25206875.65041  25206883.09541
      2678.312        2086.961  
 114721521.643    89393407.7404   21830778.441 8  21830778.05845  21830782.29145
       562.231         438.090  
 109256917.668    85135277.2714   20790899.969 8  20790899.82345  20790903.15546
     -2189.588       -1706.194  
 123719775.058    96405029.5864   23543090.316 6  23543090.75942  23543093.31242
     -3699.989       -2883.146  
 108704919.227    84705145.5634   20685855.715 8  20685855.32346  20685858.90046
       520.902         405.887  
 135064414.284   105245015.3944   25701904.227 6  25701903.23741  25701911.54641
      3453.436        2690.949  
 121576305.769    94734805.4834   23135201.543 7  23135200.92643  23135205.92443
     -2254.292       -1756.594  
 130943257.783   102033716.6664   24917673.995 6  24917674.25542  24917679.75342
      1349.518        1051.586  
 01 12 19 14 50  4.0000000  0  8G10G25G30G 5G 6G17G24G 1            
 132460349.576   103215882.1874   25206369.816 5  25206366.11241  25206374.33941
      2677.964        2086.686  
 114720959.803    89392969.9454   21830671.694 8  21830671.20145  21830675.30045
       561.359         437.424  
 109259107.496    85136983.6294   20791316.828 8  20791316.48745  20791319.86245
     -2190.208       -1706.641  
 123723475.241    96407912.8554   23543793.640 6  23543794.68042  23543797.38942
     -3700.377       -2883.376  
 108704398.677    84704739.9434   20685756.711 8  20685756.37146  20685759.94646
       520.109         405.284  
 135060960.850   105242324.3944   25701247.341 6  25701247.52241  25701255.15441
      3453.409        2691.027  
 121578560.342    94736562.2944   23135629.933 7  23135629.83643  23135635.03643
     -2254.954       -1757.101  
 130941908.768   102032665.4884   24917416.546 5  24917418.55941  24917423.43942
      1348.732        1050.951  
 01 12 19 14 50  5.0000000  0  8G10G25G30G 5G 6G17G24G 1            
 132457671.840   103213795.6274   25205857.938 5  25205856.87341  25205863.41941
      2677.083        2085.988  
 114720398.662    89392532.6934   21830564.691 7  21830564.29145  21830568.44045
       560.452         436.716  
 109261297.915    85138690.4494   20791733.617 8  20791733.36046  20791736.75045
     -2191.035       -1707.290  
 123727175.734    96410796.3524   23544497.668 6  23544498.34842  23544502.18042
     -3701.071       -2883.922  
 108703878.729    84704334.7944   20685658.021 8  20685657.38846  20685660.98945
       519.332         404.665  
 135057507.499   105239633.5004   25700590.297 6  25700590.11241  25700596.81441
      3453.043        2690.629  
 121580815.556    94738319.6084   23136058.423 7  23136058.62643  23136064.20243
     -2255.795       -1757.747  
 130940560.357   102031614.7884   24917160.262 5  24917161.45541  24917166.57942
      1347.858        1050.296  
 01 12 19 14 50  6.0000000  0  8G10G25G30G 5G 6G17G24G 1            
 132454994.489   103211709.3884   25205348.762 5  25205347.04041  25205353.17841
      2676.756        2085.752  
 114719838.193    89392095.9634   21830458.118 8  21830457.65845  21830461.84445
       560.377         436.650  
 109263488.857    85140397.6774   20792150.410 8  20792150.24445  20792153.72246
     -2190.898       -1707.204  
 123730876.418    96413679.9974   23545201.638 6  23545202.11942  23545206.51742
     -3700.606       -2883.594  
 108703359.373    84703930.1004   20685559.470 8  20685558.69946  20685562.21246
       519.319         404.661  
 135054054.140   105236942.5634   25699932.611 6  25699932.33041  25699939.84841
      3453.583        2691.102  
 121583071.362    94740077.3824   23136487.806 7  23136488.21543  23136493.45743
     -2255.801       -1757.772  
 130939212.599   102030564.5744   24916903.459 6  24916904.23241  24916910.80241
      1347.680        1050.153  
 01 12 19 14 50  7.0000000  0  8G10G25G30G 5G 6G17G24G 1            
 132452317.257   103209623.2264   25204839.664 5  25204836.78941  25204842.34741
      2677.441        2086.396  
 114719278.297    89391659.6824   21830351.864 8  21830351.25845  21830355.45645
       559.659         436.097  
 109265680.233    85142105.2454   20792567.342 8  20792567.35545  20792570.77946
     -2191.618       -1707.752  
 123734577.277    96416563.7934   23545906.053 6  23545906.09242  23545910.74342
     -3701.034       -2883.927  
 108702840.472    84703525.7644   20685460.892 8  20685459.91046  20685463.51546
       518.754         404.223  
 135050600.739   105234251.6184   25699274.846 6  25699274.36341  25699282.51541
      3453.571        2691.055  
 121585327.659    94741835.5454   23136917.243 7  23136917.73743  23136922.68143
     -2256.411       -1758.273  
 130937865.304   102029514.7394   24916647.556 5  24916648.10141  24916653.86341
      1347.222        1049.836  
 01 12 19 14 50  8.0000000  0  8G10G25G30G 5G 6G17G24G 1            
 132449640.434   103207537.4064   25204329.706 5  25204327.99841  25204334.29241
      2676.753        2085.798  
 114718719.098    89391223.9474   21830245.410 8  21830244.96545  21830248.86245
       558.828         435.440  
 109267872.166    85143813.2414   20792984.328 8  20792984.53045  20792987.93446
     -2192.247       -1708.249  
 123738278.383    96419447.7644   23546610.706 6  23546610.30242  23546615.59742
     -3701.206       -2884.058  
 108702322.182    84703121.9024   20685362.099 8  20685361.29646  20685364.84346
       517.985         403.609  
 135047147.374   105231560.6734   25698617.129 6  25698616.23841  25698624.71141
      3453.269        2690.947  
 121587584.606    94743594.2044   23137347.047 7  23137347.08343  23137352.64343
     -2257.261       -1758.923  
 130936518.698   102028465.4314   24916391.448 6  24916390.97241  24916397.55541
      1346.244        1049.060  
 01 12 19 14 50  9.0000000  0  8G10G25G30G 5G 6G17G24G 1            
 132446963.966   103205451.8544   25203819.822 5  25203818.03741  25203824.81141
      2676.662        2085.690  
 114718160.643    89390788.7944   21830138.803 8  21830138.71745  21830142.73145
       558.297         435.024  
 109270064.717    85145521.7244   20793401.227 8  20793401.56845  20793405.13745
     -2192.679       -1708.588  
 123741979.825    96422332.0084   23547315.009 6  23547314.68342  23547320.18342
     -3701.378       -2884.230  
 108701804.534    84702718.5414   20685263.385 8  20685262.71645  20685266.31946
       517.419         403.160  
 135043694.145   105228869.8374   25697960.413 6  25697960.00341  25697967.85341
      3453.359        2690.934  
 121589842.215    94745353.3714   23137776.962 7  23137776.37943  23137782.29643
     -2257.818       -1759.325  
 130935172.765   102027416.6494   24916135.721 6  24916135.47341  24916141.28241
      1345.700        1048.617  
 01 12 19 14 50 10.0000000  0  8G10G25G30G 5G 6G17G24G 1            
 132444287.729   103203366.4744   25203311.660 5  25203308.62841  25203315.61541
      2676.089        2085.269  
 114717602.730    89390354.0554   21830032.336 8  21830032.28845  21830036.58345
       557.602         434.499  
 109272257.672    85147230.5194   20793818.641 8  20793818.95545  20793822.45846
     -2193.287       -1709.068  
 123745681.354    96425216.3074   23548019.623 6  23548018.76642  23548024.38942
     -3701.651       -2884.391  
 108701287.315    84702315.5094   20685164.685 8  20685164.23246  20685167.86545
       516.885         402.763  
 135040240.820   105226178.9384   25697303.937 6  25697303.44041  25697310.73941
      3453.226        2690.788  
 121592100.277    94747112.8864   23138206.437 7  23138205.63143  23138211.98943
     -2258.327       -1759.711  
 130933827.329   102026368.2564   24915879.672 6  24915879.44141  24915885.56041
      1344.944        1048.038  
 01 12 19 14 50 11.0000000  0  8G10G25G30G 5G 6G17G24G 1            
 132441611.840   103201281.3894   25202799.927 5  25202799.64741  25202807.26541
      2675.829        2085.001  
 114717045.531    89389919.8744   21829926.377 8  21829926.27245  21829930.49245
       556.829         433.897  
 109274451.193    85148939.7624   20794236.123 8  20794236.14745  20794239.85346
     -2193.822       -1709.485  
 123749383.186    96428100.8384   23548724.607 6  23548723.26342  23548729.81242
     -3702.070       -2884.729  
 108700770.723    84701912.9724   20685066.295 8  20685065.92246  20685069.63746
       516.241         402.241  
 135036787.542   105223488.1224   25696647.111 6  25696645.83141  25696652.73441
      3453.227        2690.728  
 121594358.976    94748872.9174   23138636.002 7  23138635.51043  23138641.62943
     -2259.154       -1760.410  
 130932482.497   102025320.3514   24915623.800 6  24915623.52641  24915629.13941
      1344.637        1047.720  
 01 12 19 14 50 12.0000000  0  8G10G25G30G 5G 6G17G24G 1            
 132438936.210   103199196.4854   25202290.758 5  25202290.42641  25202298.99941
      2675.806        2084.984  
 114716488.978    89389486.1994   21829820.585 8  21829820.37745  21829824.68745
       556.293         433.454  
 109276645.242    85150649.4114   20794654.090 8  20794653.67445  20794657.35646
     -2194.287       -1709.843  
 123753085.215    96430985.5424   23549428.082 6  23549427.41142  23549433.99542
     -3702.240       -2884.890  
 108700254.664    84701510.8544   20684968.112 8  20684967.65646  20684971.52946
       515.848         401.942  
 135033334.274   105220797.2624   25695989.249 6  25695989.73541  25695996.33241
      3453.487        2691.090  
 121596618.265    94750633.4074   23139066.107 7  23139065.82143  23139071.45243
     -2259.529       -1760.679  
 130931138.302   102024272.9014   24915367.904 6  24915367.84441  24915372.91441
      1343.916        1047.203  
 01 12 19 14 50 13.0000000  0  8G10G25G30G 5G 6G17G24G 1            
 132436261.056   103197111.9634   25201781.137 5  25201782.07941  25201789.99541
      2674.795        2084.241  
 114715933.240    89389053.1614   21829714.898 8  21829714.62945  21829719.04345
       555.439         432.790  
 109278839.965    85152359.5814   20795071.966 8  20795071.39245  20795075.01346
     -2195.036       -1710.434  
 123756787.646    96433870.5614   23550132.611 6  23550132.14742  23550138.13342
     -3702.510       -2885.085  
 108699739.340    84701109.3034   20684869.896 8  20684869.53446  20684873.26246
       515.014         401.315  
 135029881.194   105218106.5114   25695332.047 6  25695331.63341  25695339.80141
      3452.787        2690.531  
 121598878.294    94752394.4664   23139495.886 7  23139495.96643  23139501.72043
     -2260.385       -1761.339  
 130929794.804   102023225.9784   24915112.191 6  24915113.13841  24915116.82841
      1343.197        1046.616  
 01 12 19 14 50 14.0000000  0  8G10G25G30G 5G 6G17G24G 1            
 132433586.073   103195027.5734   25201273.703 5  25201273.31841  25201280.78741
      2674.635        2084.102  
 114715378.030    89388620.5304   21829609.277 8  21829608.95845  21829613.36245
       555.119         432.559  
 109281035.067    85154070.0494   20795489.719 8  20795489.24145  20795492.55345
     -2195.034       -1710.390  
 123760490.153    96436755.6354   23550836.924 6  23550836.48942  23550842.47942
     -3702.390       -2884.961  
 108699224.425    84700708.0714   20684772.278 8  20684771.61446  20684775.31545
       514.890         401.239  
 135026427.982   105215415.6974   25694675.400 6  25694672.93241  25694683.78141
      3453.399        2690.912  
 121601138.744    94754155.8554   23139926.055 7  23139926.10243  23139931.98943
     -2260.558       -1761.458  
 130928451.814   102022179.5034   24914856.795 6  24914856.85541  24914860.76541
      1342.879        1046.443  
 01 12 19 14 50 15.0000000  0  8G10G25G30G 5G 6G17G24G 1            
 132430911.320   103192943.3614   25200765.668 5  25200764.76841  25200771.51841
      2674.823        2084.288  
 114714823.430    89388188.3774   21829503.904 8  21829503.52945  21829507.84845
       554.313         431.920  
 109283230.651    85155780.8954   20795907.280 8  20795907.12945  20795910.45945
     -2195.754       -1710.979  
 123764192.853    96439640.8504   23551541.692 6  23551541.51542  23551546.53842
     -3702.839       -2885.308  
 108698710.042    84700307.2554   20684674.375 8  20684673.75946  20684677.50346
       514.183         400.656  
 135022974.755   105212724.8384   25694017.548 6  25694014.54241  25694026.54541
      3453.230        2690.911  
 121603399.753    94755917.6854   23140356.559 7  23140356.59043  23140361.89443
     -2261.209       -1761.986  
 130927109.396   102021133.4634   24914601.497 6  24914601.31441  24914606.22741
      1342.167        1045.853  
 01 12 19 14 50 16.0000000  0  8G10G25G30G 5G 6G17G24G 1            
 132428236.829   103190859.3394   25200256.747 5  25200255.78841  25200262.49241
      2674.385        2083.893  
 114714269.374    89387756.6504   21829398.359 8  21829397.89845  21829402.26045
       553.845         431.592  
 109285426.640    85157492.0594   20796324.808 8  20796325.00045  20796328.35846
     -2196.103       -1711.248  
 123767895.662    96442526.1424   23552245.962 6  23552246.12742  23552250.44942
     -3702.865       -2885.336  
 108698196.092    84699906.7774   20684576.623 8  20684575.99745  20684579.65046
       513.731         400.316  
 135019521.432   105210033.9264   25693360.153 6  25693357.46241  25693368.66841
      3453.296        2690.827  
 121605661.255    94757679.9044   23140787.010 7  23140786.74443  23140792.62843
     -2261.871       -1762.494  
 130925767.429   102020087.7644   24914346.209 6  24914345.82041  24914351.31141
      1341.726        1045.508  
 01 12 19 14 50 17.0000000  0  8G10G25G30G 5G 6G17G24G 1            
 132425562.294   103188775.2814   25199748.535 5  25199748.16641  25199753.16041
      2674.613        2084.020  
 114713715.692    89387325.2114   21829292.999 8  21829292.50145  21829296.82345
       553.456         431.249  
 109287622.867    85159203.4074   20796742.764 8  20796742.88645  20796746.35746
     -2196.306       -1711.416  
 123771598.420    96445411.4124   23552951.200 6  23552951.21242  23552955.40942
     -3702.848       -2885.312  
 108697682.428    84699506.5224   20684478.743 8  20684478.21845  20684481.93546
       513.479         400.102  
 135016067.866   105207342.8334   25692703.062 6  25692700.12941  25692710.71041
      3453.590        2691.063  
 121607923.031    94759442.3264   23141217.432 7  23141217.01443  23141222.71843
     -2261.935       -1762.541  
 130924425.818   102019042.3614   24914090.976 6  24914090.57641  24914095.28141
      1341.448        1045.278  
 01 12 19 14 50 18.0000000  0  8G10G25G30G 5G 6G17G24G 1            
 132422888.195   103186691.5714   25199239.463 5  25199238.05141  25199244.40141
      2674.193        2083.819  
 114713162.746    89386894.3454   21829187.739 8  21829187.21045  21829191.51445
       552.486         430.505  
 109289819.691    85160915.2164   20797160.360 8  20797160.89345  20797164.43245
     -2197.144       -1712.063  
 123775301.473    96448296.9094   23553656.066 6  23553655.25342  23553660.42742
     -3703.253       -2885.642  
 108697169.389    84699106.7484   20684380.735 8  20684380.52746  20684384.31946
       512.635         399.463  
 135012614.337   105204651.7804   25692045.778 6  25692043.00441  25692052.52841
      3453.551        2691.115  
 121610185.477    94761205.2684   23141648.101 7  23141647.76643  23141653.47943
     -2262.859       -1763.244  
 130923084.855   102017997.4814   24913835.319 6  24913835.43141  24913839.47541
      1340.533        1044.485  
 01 12 19 14 50 19.0000000  0  8G10G25G30G 5G 6G17G24G 1            
 132420214.403   103184608.0874   25198730.589 5  25198729.19141  25198734.25841
      2673.505        2083.230  
 114712610.507    89386464.0324   21829082.394 7  21829082.05145  21829086.50445
       551.713         429.882  
 109292017.093    85162627.4764   20797578.761 8  20797579.01645  20797582.65045
     -2197.840       -1712.610  
 123779004.789    96451182.6044   23554360.278 6  23554360.39042  23554365.35642
     -3703.539       -2885.851  
 108696656.960    84698707.4504   20684283.293 8  20684282.97446  20684286.71645
       511.944         398.913  
 135009160.910   105201960.8094   25691388.054 6  25691386.60341  25691394.04641
      3453.279        2690.960  
 121612448.552    94762968.7044   23142078.321 7  23142078.44843  23142084.39843
     -2263.522       -1763.779  
 130921744.560   102016953.1034   24913580.093 6  24913580.98141  24913584.33641
      1339.670        1043.942  
 01 12 19 14 50 20.0000000  0  8G10G25G30G 5G 6G17G24G 1            
 132417540.910   103182524.8404   25198220.082 5  25198219.80341  25198224.67441
      2673.593        2083.266  
 114712058.916    89386034.2224   21828977.773 8  21828977.09945  21828981.76245
       551.297         429.579  
 109294215.000    85164340.1334   20797997.243 8  20797997.25645  20798000.77946
     -2198.125       -1712.826  
 123782708.322    96454068.4784   23555065.667 6  23555064.71542  23555069.58142
     -3703.589       -2885.918  
 108696145.074    84698308.5854   20684185.991 8  20684185.80145  20684189.51446
       511.565         398.622  
 135005707.520   105199269.8524   25690730.402 6  25690731.01641  25690736.43241
      3453.396        2690.872  
 121614712.201    94764732.5804   23142508.972 7  23142508.95043  23142514.94143
     -2263.960       -1764.132  
 130920404.808   102015909.1514   24913325.069 6  24913325.90241  24913329.15341
      1339.462        1043.688  
 01 12 19 14 50 21.0000000  0  8G10G25G30G 5G 6G17G24G 1            
 132414867.681   103180441.8184   25197710.529 5  25197710.13841  25197717.41341
      2673.218        2083.017  
 114711507.930    89385604.8834   21828873.236 8  21828872.39245  21828876.83045
       550.835         429.216  
 109296413.385    85166053.1604   20798415.519 8  20798415.53845  20798419.13646
     -2198.378       -1713.003  
 123786412.056    96456954.5094   23555770.635 6  23555769.67642  23555774.44742
     -3703.487       -2885.828  
 108695633.695    84697910.1094   20684088.593 8  20684088.37846  20684092.01246
       511.349         398.440  
 135002254.113   105196578.8624   25690074.381 6  25690073.20041  25690079.68941
      3453.626        2691.194  
 121616976.395    94766496.8924   23142939.830 7  23142939.96343  23142946.06143
     -2264.361       -1764.445  
 130919065.647   102014865.6644   24913071.130 6  24913070.37241  24913074.56241
      1339.059        1043.427  
 01 12 19 14 50 22.0000000  0  8G10G25G30G 5G 6G17G24G 1            
 132412195.005   103178359.2504   25197202.031 5  25197203.28741  25197209.50141
      2672.530        2082.426  
 114710957.867    89385176.2674   21828768.504 8  21828767.69345  21828772.24845
       549.733         428.353  
 109298612.546    85167766.7884   20798833.993 8  20798834.03745  20798837.52745
     -2199.317       -1713.738  
 123790116.265    96459840.9104   23556475.280 6  23556475.11742  23556479.29342
     -3704.123       -2886.352  
 108695123.147    84697512.2824   20683991.286 8  20683991.17346  20683994.93446
       510.338         397.683  
 134998800.931   105193888.0734   25689416.947 6  25689416.12341  25689421.23341
      3453.221        2690.821  
 121619241.442    94768261.8704   23143371.252 7  23143371.02143  23143377.01543
     -2265.420       -1765.257  
 130917727.317   102013822.7964   24912816.933 6  24912815.14741  24912819.68341
      1337.907        1042.595  
 01 12 19 14 50 23.0000000  0  8G10G25G30G 5G 6G17G24G 1            
 132409522.683   103176276.9034   25196693.173 5  25196695.12641  25196701.31441
      2672.651        2082.592  
 114710408.508    89384748.1904   21828663.807 8  21828663.04745  21828667.68145
       548.996         427.797  
 109300812.265    85169480.8584   20799252.734 8  20799252.68045  20799256.09845
     -2200.062       -1714.335  
 123793820.760    96462727.5204   23557180.205 6  23557180.19942  23557183.97342
     -3704.649       -2886.765  
 108694613.200    84697114.9224   20683894.185 8  20683894.04546  20683897.95346
       509.615         397.090  
 134995347.839   105191197.3434   25688759.027 6  25688759.80141  25688766.02541
      3453.001        2690.706  
 121621507.094    94770027.3114   23143802.636 7  23143802.28643  23143808.13143
     -2265.986       -1765.702  
 130916389.671   102012780.4534   24912562.150 6  24912560.76941  24912566.12341
      1337.164        1041.904  
 01 12 19 14 50 24.0000000  0  8G10G25G30G 5G 6G17G24G 1            
 132406850.822   103174194.9414   25196187.722 5  25196186.41441  25196192.82541
      2671.572        2081.760  
 114709859.961    89384320.7554   21828559.247 8  21828558.85745  21828563.10145
       548.367         427.286  
 109303012.653    85171195.4484   20799671.764 8  20799671.47045  20799674.92745
     -2200.480       -1714.693  
 123797525.608    96465614.4114   23557884.674 6  23557884.98242  23557889.23942
     -3704.511       -2886.625  
 108694103.955    84696718.1084   20683797.124 8  20683796.94546  20683801.00246
       509.150         396.728  
 134991894.899   105188506.7394   25688103.079 6  25688102.34541  25688109.72841
      3453.122        2690.791  
 121623773.496    94771793.3364   23144233.464 7  23144233.47143  23144239.41143
     -2266.362       -1765.991  
 130915052.739   102011738.6794   24912308.001 6  24912306.79141  24912311.57741
      1336.709        1041.656  
 01 12 19 14 50 25.0000000  0  8G10G25G30G 5G 6G17G24G 1            
 132404178.994   103172113.0024   25195681.087 5  25195677.93641  25195685.01041
      2671.912        2081.996  
 114709311.788    89383893.6094   21828454.863 8  21828454.42045  21828458.68145
       548.126         427.096  
 109305213.282    85172910.2264   20800090.051 8  20800090.26445  20800093.66345
     -2200.646       -1714.797  
 123801230.426    96468501.2784   23558589.959 6  23558589.84642  23558594.29842
     -3704.672       -2886.753  
 108693594.997    84696321.5214   20683700.419 8  20683699.97246  20683704.08246
       508.980         396.587  
 134988441.733   105185816.0064   25687446.062 6  25687444.89541  25687453.82341
      3453.479        2690.888  
 121626040.214    94773559.6094   23144665.126 7  23144664.94543  23144670.31143
     -2266.774       -1766.332  
 130913716.122   102010697.1424   24912053.606 6  24912053.11541  24912056.98541
      1336.480        1041.452  
 01 12 19 14 50 26.0000000  0  9G10G25G30G 5G 6G29G17G24G 1         
 132401507.258   103170031.1184   25195172.999 5  25195169.19741  25195174.64241
      2671.590        2081.746  
 114708763.994    89383466.7554   21828350.722 7  21828350.10345  21828354.24745
       547.424         426.565  
 109307414.160    85174625.1994   20800508.995 8  20800509.09945  20800512.38046
     -2201.181       -1715.222  
 123804935.173    96471388.1074   23559295.732 6  23559294.78342  23559299.88642
     -3705.005       -2887.043  
 108693086.315    84695925.1464   20683603.748 8  20683603.20646  20683607.34646
       508.456         396.193  
 128165319.802                    24389050.268 4                                
     -3050.096                  
 134984988.283   105183125.0314   25686789.852 6  25686788.54041  25686797.66241
      3453.421        2690.960  
 121628307.210    94775326.1154   23145096.273 7  23145096.09243  23145101.75643
     -2267.317       -1766.779  
 130912379.860   102009655.9114   24911799.198 6  24911798.34541  24911804.11841
      1336.251        1041.173  
 01 12 19 14 50 27.0000000  0  9G10G25G30G 5G 6G29G17G24G 1         
 132398836.042   103167949.6424   25194663.661 5  25194660.16041  25194666.46341
      2670.915        2081.220  
 114708217.172    89383040.6674   21828246.649 8  21828245.85845  21828250.13245
       546.551         425.867  
 109309615.866    85176340.8164   20800928.152 8  20800928.16345  20800931.25746
     -2201.887       -1715.780  
 123808640.483    96474275.3614   23560000.675 6  23559999.90742  23560004.87442
     -3705.389       -2887.311  
 108692578.521    84695529.4644   20683507.140 8  20683506.58046  20683510.51346
       507.456         395.419  
 128168370.784                    24389632.339 4                                
     -3051.359                  
 134981535.174   105180434.3064   25686133.240 6  25686130.38841  25686140.52141
      3453.041        2690.767  
 121630575.138    94777093.3334   23145527.740 7  23145527.48443  23145533.39243
     -2268.193       -1767.407  
 130911044.504   102008615.3744   24911544.923 5  24911543.32741  24911549.39341
      1335.238        1040.412  
 01 12 19 14 50 28.0000000  0  9G10G25G30G 5G 6G29G17G24G 1         
 132396165.001   103165868.3054   25194153.698 5  25194151.57141  25194158.96841
      2670.620        2080.988  
 114707670.877    89382614.9854   21828142.568 7  21828142.07645  21828146.21445
       545.826         425.300  
 109311817.971    85178056.7404   20801347.446 8  20801347.31945  20801350.09746
     -2202.522       -1716.247  
 123812345.857    96477162.6594   23560705.613 6  23560704.95342  23560709.52542
     -3705.588       -2887.437  
 108692071.135    84695134.1034   20683410.764 8  20683410.15146  20683414.10046
       506.826         394.926  
 128171421.952                    24390213.263 4                                
     -3051.271                  
 134978081.962   105177743.4794   25685475.078 6  25685473.18041  25685483.71341
      3452.889        2690.527  
 121632843.499    94778860.8914   23145959.806 7  23145959.17643  23145965.37643
     -2268.815       -1767.953  
 130909709.647   102007575.2424   24911290.533 6  24911287.96741  24911296.59541
      1334.191        1039.532  
 01 12 19 14 50 29.0000000  0  9G10G25G30G 5G 6G29G17G24G 1         
 132393494.426   103163787.3284   25193647.222 5  25193644.04841  25193649.21141
      2670.650        2081.031  
 114707125.384    89382189.9294   21828038.725 8  21828038.23345  21828042.25845
       545.141         424.783  
 109314020.741    85179773.1814   20801766.655 8  20801766.52745  20801769.39946
     -2203.053       -1716.661  
 123816051.610    96480050.2544   23561411.182 6  23561409.97142  23561415.08442
     -3705.868       -2887.672  
 108691564.449    84694739.2844   20683314.345 8  20683313.78746  20683317.68646
       506.255         394.480  
 128174473.626                    24390793.051 4                                
     -3052.230                  
 134974628.901   105175052.7674   25684817.736 6  25684816.40141  25684824.57641
      3453.000        2690.705  
 121635112.577    94780628.9974   23146391.467 7  23146390.92143  23146397.25943
     -2269.312       -1768.285  
 130908375.484   102006535.6374   24911037.048 6  24911034.91141  24911041.11941
      1333.560        1039.174  
 01 12 19 14 50 30.0000000  0  9G10G25G30G 5G 6G29G17G24G 1         
 132390823.947   103161706.4434   25193139.877 5  25193135.59341  25193141.29841
      2670.513        2080.968  
 114706580.314    89381765.1954   21827934.823 8  21827934.69245  21827938.64645
       544.752         424.511  
 109316223.798    85181489.8444   20802185.640 8  20802185.66045  20802188.61646
     -2203.262       -1716.801  
 123819757.357    96482937.8514   23562115.954 6  23562115.09342  23562120.32142
     -3705.854       -2887.681  
 108691058.096    84694344.7254   20683218.161 8  20683217.53846  20683221.44446
       506.103         394.382  
 128177525.372                    24391375.268 4                                
     -3052.117                  
 134971175.643   105172361.8894   25684160.729 6  25684158.78241  25684168.26141
      3453.174        2690.907  
 121637382.021    94782397.3864   23146823.652 7  23146822.66343  23146829.14843
     -2269.582       -1768.444  
 130907041.705   102005496.3494   24910784.141 6  24910781.25741  24910787.32741
      1333.687        1039.300  
 01 12 19 14 50 31.0000000  0  9G10G25G30G 5G 6G29G17G24G 1         
 132388153.858   103159625.8714   25192630.193 5  25192628.37041  25192632.41141
      2669.815        2080.339  
 114706036.017    89381341.0714   21827831.392 7  21827831.12745  21827835.36045
       543.981         423.878  
 109318427.477    85183206.9964   20802604.578 8  20802604.93645  20802608.03245
     -2203.946       -1717.354  
 123823463.450    96485825.7084   23562820.603 6  23562820.16642  23562825.02442
     -3706.248       -2887.971  
 108690552.401    84693950.6794   20683121.877 8  20683121.30146  20683124.95746
       505.435         393.845  
 128180578.092                    24391955.431 4                                
     -3052.155                  
 134967722.495   105169671.1034   25683503.577 6  25683501.78341  25683509.04741
      3452.968        2690.612  
 121639652.155    94784166.3214   23147255.779 7  23147254.63843  23147260.99443
     -2270.358       -1769.083  
 130905708.634   102004457.5834   24910530.719 6  24910528.85441  24910532.98941
      1332.542        1038.396  
 01 12 19 14 50 32.0000000  0  9G10G25G30G 5G 6G29G17G24G 1         
 132385484.071   103157545.5194   25192121.271 5  25192119.82541  25192124.53341
      2669.275        2079.942  
 114705492.384    89380917.4674   21827728.046 8  21827727.77745  21827731.75945
       543.205         423.280  
 109320631.675    85184924.5634   20803024.356 8  20803024.28745  20803027.42046
     -2204.655       -1717.928  
 123827169.763    96488713.7564   23563525.806 6  23563525.38342  23563530.17542
     -3706.631       -2888.319  
 108690047.279    84693557.0784   20683025.611 8  20683025.23946  20683028.89646
       504.667         393.262  
 128183630.680                    24392537.873 4                                
     -3052.955                  
 134964269.362   105166980.3254   25682846.852 6  25682843.94941  25682853.97641
      3453.096        2690.594  
 121641922.854    94785935.7024   23147687.518 7  23147686.74843  23147692.90443
     -2271.058       -1769.668  
 130904376.159   102003419.3074   24910277.054 6  24910275.70841  24910279.49341
      1332.003        1037.916  
 01 12 19 14 50 33.0000000  0  9G10G25G30G 5G 6G29G17G24G 1         
 132382814.334   103155465.2304   25191613.372 5  25191611.64141  25191617.29441
      2669.974        2080.526  
 114704949.156    89380494.1724   21827624.809 8  21827624.25945  21827628.53845
       543.198         423.286  
 109322836.153    85186642.3344   20803444.015 8  20803443.89445  20803446.96346
     -2204.525       -1717.809  
 123830876.036    96491601.7574   23564230.780 6  23564230.34642  23564235.36942
     -3706.117       -2887.879  
 108689542.460    84693163.7144   20682929.535 8  20682929.10645  20682932.71746
       504.828         393.377  
 128186683.371                    24393118.459 4                                
     -3052.636                  
 134960816.007   105164289.3854   25682189.841 6  25682188.79141  25682196.63341
      3453.717        2691.276  
 121644193.906    94787705.3614   23148119.603 7  23148118.78443  23148124.59743
     -2271.104       -1769.696  
 130903044.019   102002381.2714   24910022.984 6  24910021.80341  24910027.01341
      1331.958        1037.855  
 01 12 19 14 50 34.0000000  0  9G10G25G30G 5G 6G29G17G24G 1         
 132380144.566   103153384.9064   25191107.187 5  25191102.86941  25191109.30441
      2669.406        2080.029  
 114704406.210    89380071.0984   21827521.464 8  21827521.02645  21827525.12145
       542.489         422.732  
 109325040.755    85188360.2074   20803863.480 8  20803863.44345  20803866.45145
     -2204.923       -1718.129  
 123834582.147    96494489.6214   23564935.055 6  23564935.40542  23564940.79242
     -3706.191       -2887.905  
 108689037.820    84692770.4934   20682833.740 8  20682833.05746  20682836.88146
       504.218         392.894  
 128189736.038                    24393698.207 4                                
     -3052.970                  
 134957362.324   105161598.2104   25681532.536 6  25681530.71041  25681537.79241
      3453.469        2691.121  
 121646465.153    94789475.1584   23148551.990 6  23148551.24943  23148557.13743
     -2271.666       -1770.103  
 130901712.130   102001343.4304   24909769.818 6  24909768.95741  24909773.48741
      1331.497        1037.570  
 01 12 19 14 50 35.0000000  0  9G10G25G30G 5G 6G29G17G24G 1         
 132377474.884   103151304.6234   25190599.989 5  25190595.06841  25190602.67541
      2669.649        2080.222  
 114703863.775    89379648.4194   21827418.052 8  21827417.85045  21827421.75645
       542.012         422.355  
 109327245.737    85190078.3744   20804283.198 8  20804283.16745  20804285.96046
     -2205.352       -1718.442  
 123838288.387    96497377.5894   23565640.774 6  23565640.16742  23565646.21142
     -3706.363       -2888.056  
 108688533.598    84692377.5954   20682737.509 8  20682737.05246  20682740.95546
       503.700         392.496  
 128192788.905                    24394280.273 4                                
     -3053.309                  
 134953908.480   105158906.9304   25680875.079 6  25680873.86841  25680878.48541
      3453.781        2691.161  
 121648736.852    94791245.3094   23148984.179 7  23148983.81043  23148989.55543
     -2272.128       -1770.472  
 130900380.648   102000305.8964   24909517.484 6  24909515.62641  24909520.61741
      1331.174        1037.307  
 01 12 19 14 50 36.0000000  0  9G10G25G30G 5G 6G29G17G24G 1         
 132374805.722   103149224.7534   25190093.586 5  25190086.90341  25190094.12641
      2669.100        2079.810  
 114703322.160    89379226.3884   21827314.607 7  21827314.73045  21827318.79745
       541.293         421.802  
 109329451.388    85191797.0674   20804703.058 8  20804702.95545  20804705.85745
     -2205.861       -1718.844  
 123841994.968    96500265.8234   23566346.905 6  23566346.37942  23566351.65242
     -3706.619       -2888.256  
 108688030.072    84691985.2384   20682641.692 8  20682641.28446  20682645.25446
       503.375         392.262  
 128195842.274                    24394859.810 4                                
     -3053.639                  
 134950454.818   105156215.8084   25680217.685 6  25680215.55141  25680225.67241
      3453.812        2691.301  
 121651009.275    94793016.0224   23149416.021 7  23149416.07543  23149421.67343
     -2272.800       -1771.002  
 130899049.984   101999269.0104   24909263.462 6  24909262.67241  24909266.95541
      1330.480        1036.782  
 01 12 19 14 50 37.0000000  0  9G10G25G30G 5G 6G29G17G24G 1         
 132372136.845   103147145.1194   25189585.902 5  25189578.72541  25189587.36141
      2668.658        2079.510  
 114702781.220    89378804.8824   21827211.786 7  21827211.59645  21827215.91845
       540.381         421.064  
 109331657.568    85193516.1714   20805122.775 8  20805122.84246  20805125.77445
     -2206.611       -1719.446  
 123845701.785    96503154.2474   23567052.657 6  23567051.60442  23567057.24342
     -3707.181       -2888.744  
 108687527.129    84691593.3394   20682545.820 8  20682545.51046  20682549.46046
       502.629         391.641  
 128198896.005                    24395442.966 4                                
     -3054.402                  
 134947001.189   105153524.6584   25679560.510 6  25679558.95541  25679567.94741
      3453.607        2691.169  
 121653282.283    94794787.2044   23149848.223 7  23149848.64443  23149854.09143
     -2273.421       -1771.498  
 130897719.904   101998232.5934   24909010.465 6  24909010.10941  24909012.91241
      1329.572        1036.039  
 01 12 19 14 50 38.0000000  0  9G10G25G30G 5G 6G29G17G24G 1         
 132369468.428   103145065.8414   25189076.954 5  25189071.42141  25189080.68041
      2668.602        2079.305  
 114702241.061    89378383.9824   21827109.117 8  21827108.81545  21827112.95445
       539.924         420.727  
 109333864.394    85195235.7724   20805542.889 8  20805542.77446  20805545.59245
     -2206.981       -1719.727  
 123849408.955    96506042.9644   23567757.552 6  23567757.16242  23567762.58842
     -3707.164       -2888.649  
 108687024.882    84691201.9774   20682450.515 8  20682449.92946  20682453.92746
       502.034         391.200  
 128201950.227                    24396022.158 4                                
     -3054.186                  
 134943547.741   105150833.6194   25678903.563 6  25678902.67741  25678912.85841
      3453.484        2691.083  
 121655555.997    94796558.9394   23150281.064 7  23150281.07043  23150286.72443
     -2273.845       -1771.819  
 130896390.560   101997196.7364   24908757.607 6  24908756.28541  24908761.37941
      1329.263        1035.739  
 01 12 19 14 50 39.0000000  0  9G10G25G30G 5G 6G29G17G24G 1         
 132366800.035   103142986.5754   25188567.458 5  25188564.70441  25188574.20641
      2668.774        2079.528  
 114701701.324    89377963.4034   21827006.021 7  21827006.13545  21827010.43545
       539.680         420.531  
 109336071.508    85196955.6024   20805962.619 8  20805962.70945  20805965.51946
     -2207.210       -1719.914  
 123853116.103    96508931.6624   23568463.648 6  23568463.26342  23568468.40042
     -3706.928       -2888.533  
 108686522.950    84690810.8614   20682355.062 8  20682354.43646  20682358.40546
       501.837         391.035  
 128205004.540                    24396601.038 4                                
     -3053.841                  
 134940094.040   105148142.4254   25678246.638 6  25678246.77241  25678255.39141
      3454.008        2691.297  
 121657830.086    94798330.9624   23150714.280 6  23150713.75843  23150719.88743
     -2274.002       -1771.976  
 130895061.561   101996161.1514   24908503.749 6  24908503.37941  24908508.60541
      1329.064        1035.623  
 01 12 19 14 50 40.0000000  0  9G10G25G30G 5G 6G29G17G24G 1         
 132364132.174   103140907.7234   25188057.943 5  25188057.19541  25188065.07941
      2667.090        2078.209  
 114701162.392    89377543.4624   21826903.517 8  21826903.47145  21826907.93745
       538.133         419.320  
 109338279.300    85198675.9654   20806382.653 8  20806382.83645  20806385.76746
     -2208.573       -1720.960  
 123856823.651    96511820.6714   23569169.767 6  23569169.03842  23569173.89842
     -3708.207       -2889.507  
 108686021.714    84690420.2934   20682259.531 8  20682259.00845  20682263.03645
       500.451         389.958  
 128208059.339                    24397182.081 4                                
     -3055.514                  
 134936640.498   105145451.3974   25677588.451 6  25677587.84841  25677598.98341
      3453.042        2690.781  
 121660104.870    94800103.5134   23151147.071 7  23151146.55443  23151152.74343
     -2275.536       -1773.157  
 130893733.335   101995126.1734   24908250.413 6  24908250.33341  24908255.44241
      1327.395        1034.354  
 01 12 19 14 50 41.0000000  0  9G10G25G30G 5G 6G29G17G24G 1         
 132361464.526   103138829.0404   25187550.407 5  25187548.79541  25187556.89241
      2667.901        2078.923  
 114700624.118    89377124.0294   21826801.667 7  21826801.06845  21826805.55445
       538.128         419.305  
 109340487.596    85200396.7134   20806802.748 8  20806803.15545  20806806.15546
     -2208.418       -1720.849  
 123860531.401    96514709.8314   23569875.154 6  23569874.42842  23569879.27942
     -3707.761       -2889.195  
 108685521.050    84690030.1654   20682164.042 8  20682163.61745  20682167.76746
       500.538         390.009  
 128211114.531                    24397766.426 4                                
     -3055.510                  
 134933186.996   105142760.3374   25676930.893 6  25676930.34341  25676940.77541
      3453.671        2691.085  
 121662380.259    94801876.5484   23151580.258 7  23151579.33943  23151585.75243
     -2275.353       -1773.028  
 130892405.701   101994091.6434   24907998.091 6  24907997.22241  24908002.86441
      1327.520        1034.400  
 01 12 19 14 50 42.0000000  0  9G10G25G30G 5G 6G29G17G24G 1         
 132358797.136   103136750.5744   25187043.142 5  25187040.10641  25187048.90541
      2667.061        2078.219  
 114700086.342    89376704.9844   21826699.168 8  21826698.70045  21826703.10245
       537.566         418.874  
 109342696.234    85202117.7284   20807223.311 8  20807223.43345  20807226.55046
     -2208.771       -1721.119  
 123864239.224    96517599.0374   23570580.141 6  23570580.34042  23570584.39242
     -3707.805       -2889.215  
 108685020.763    84689640.3334   20682068.696 8  20682068.34446  20682072.45846
       500.144         389.710  
 128214169.867                    24398347.055 4                                
     -3055.616                  
 134929733.351   105140069.1654   25676274.431 6  25676272.90841  25676283.66841
      3453.763        2691.266  
 121664656.060    94803649.8894   23152013.197 7  23152012.33543  23152018.79343
     -2275.840       -1773.388  
 130891078.496   101993057.4614   24907746.391 6  24907744.99041  24907750.20641
      1327.007        1033.989  
 01 12 19 14 50 43.0000000  0  9G10G25G30G 5G 6G29G17G24G 1         
 132356129.799   103134672.1224   25186533.351 5  25186534.68041  25186539.41341
      2667.721        2078.713  
 114699549.108    89376286.3624   21826596.764 8  21826596.41345  21826600.94545
       537.026         418.456  
 109344905.273    85203839.0564   20807644.118 8  20807643.77546  20807646.79746
     -2209.149       -1721.418  
 123867947.162    96520488.3284   23571285.565 6  23571285.95442  23571289.64942
     -3707.985       -2889.290  
 108684520.922    84689250.8504   20681973.760 8  20681973.46946  20681977.37346
       499.639         389.332  
 128217225.443                    24398928.191 4                                
     -3055.867                  
 134926279.612   105137377.9594   25675617.356 6  25675615.56441  25675625.80941
      3453.706        2691.102  
 121666932.323    94805423.5974   23152446.261 7  23152445.37243  23152451.91543
     -2276.575       -1773.949  
 130889751.738   101992023.6294   24907492.768 6  24907491.27441  24907497.91041
      1326.729        1033.776  
 01 12 19 14 50 44.0000000  0  9G10G25G30G 5G 6G29G17G24G 1         
 132353462.963   103132594.0794   25186026.753 5  25186026.85541  25186031.47041
      2666.601        2077.812  
 114699012.662    89375868.3544   21826494.919 8  21826494.49645  21826498.90945
       535.867         417.552  
 109347114.987    85205560.9164   20808064.417 8  20808064.22546  20808067.22346
     -2210.181       -1722.218  
 123871655.422    96523377.8694   23571991.382 6  23571991.59742  23571995.52442
     -3708.681       -2889.884  
 108684021.771    84688861.9014   20681878.947 8  20681878.48346  20681882.36446
       498.612         388.526  
 128220281.504                    24399510.156 4                                
     -3056.296                  
 134922825.982   105134686.7924   25674960.597 6  25674957.98641  25674969.42441
      3453.480        2691.090  
 121669209.276    94807197.8614   23152878.763 6  23152878.40243  23152884.86143
     -2277.598       -1774.786  
 130888425.767   101990990.4164   24907241.101 6  24907239.17841  24907245.73441
      1325.499        1032.855  
 01 12 19 14 50 45.0000000  0  9G10G25G30G 5G 6G29G17G24G 1         
 132350796.228   103130516.1044   25185521.620 5  25185520.02341  25185522.91641
      2666.492        2077.777  
 114698476.647    89375450.6784   21826392.713 8  21826392.37445  21826396.78445
       535.703         417.431  
 109349324.976    85207282.9894   20808484.533 8  20808484.84345  20808487.81546
     -2210.289       -1722.287  
 123875363.692    96526267.4384   23572697.995 6  23572697.35742  23572701.36242
     -3708.537       -2889.826  
 108683522.951    84688473.2114   20681784.274 8  20681783.73846  20681787.47446
       498.598         388.521  
 128223337.704                    24400090.709 4                                
     -3056.895                  
 134919372.151   105131995.4834   25674303.072 6  25674301.88541  25674310.92641
      3453.630        2691.194  
 121671486.609    94808972.4014   23153312.849 7  23153312.05043  23153317.98143
     -2277.662       -1774.798  
 130887100.122   101989957.4204   24906989.377 6  24906987.13841  24906992.46641
      1325.062        1032.578  
 01 12 19 14 50 46.0000000  0  9G10G25G30G 5G 6G29G17G24G 1         
 132348129.710   103128438.3074   25185014.276 5  25185014.11241  25185017.33041
      2666.027        2077.386  
 114697941.239    89375033.4754   21826290.905 8  21826290.67845  21826294.74345
       534.838         416.751  
 109351535.441    85209005.4254   20808904.670 8  20808905.36345  20808908.42345
     -2210.970       -1722.830  
 123879072.144    96529157.1304   23573402.901 6  23573402.32042  23573406.82942
     -3708.651       -2889.800  
 108683024.634    84688084.9124   20681689.412 8  20681688.85446  20681692.63346
       497.794         387.903  
 128226394.153                    24400672.682 4                                
     -3056.573                  
 134915918.289   105129304.1524   25673645.565 6  25673645.14841  25673654.12641
      3453.755        2691.221  
 121673764.437    94810747.3374   23153746.516 6  23153746.00143  23153751.98143
     -2278.296       -1775.316  
 130885775.065   101988924.9124   24906736.894 6  24906734.76841  24906741.33141
      1324.458        1032.041  
 01 12 19 14 50 47.0000000  0  9G10G25G30G 5G 6G29G17G24G 1         
 132345463.442   103126360.6834   25184508.141 5  25184505.40041  25184511.08941
      2666.165        2077.455  
 114697406.399    89374616.7214   21826189.266 8  21826188.83945  21826192.99245
       534.539         416.531  
 109353746.308    85210728.1804   20809325.717 8  20809326.07445  20809329.32245
     -2211.112       -1722.946  
 123882780.731    96532046.9424   23574109.439 6  23574107.94842  23574112.97342
     -3708.826       -2890.052  
 108682526.780    84687696.9764   20681594.392 7  20681594.14046  20681598.02746
       497.620         387.760  
 128229450.869                    24401254.549 4                                
     -3056.976                  
 134912464.387   105126612.8074   25672988.586 6  25672989.07641  25672998.11141
      3453.915        2691.300  
 121676042.806    94812522.6904   23154180.045 7  23154179.57343  23154185.60243
     -2278.742       -1775.606  
 130884450.493   101987892.7684   24906485.020 6  24906482.31641  24906489.73241
      1324.397        1032.062  
 01 12 19 14 50 48.0000000  0  9G10G25G30G 5G 6G29G17G24G 1         
 132342797.472   103124283.3194   25184001.537 5  25183997.91841  25184003.08041
      2666.362        2077.727  
 114696872.209    89374200.4724   21826087.511 7  21826087.16145  21826091.32445
       534.434         416.433  
 109355957.701    85212451.3464   20809746.853 8  20809746.93145  20809750.10746
     -2211.065       -1722.915  
 123886489.516    96534936.8994   23574815.849 6  23574814.14242  23574819.20242
     -3708.351       -2889.603  
 108682029.473    84687309.4704   20681499.741 8  20681499.38146  20681503.28746
       497.596         387.740  
 128232507.955                    24401837.704 4                                
     -3056.733                  
 134909010.447   105123921.4044   25672331.395 6  25672331.23541  25672340.47541
      3454.604        2691.806  
 121678321.721    94814298.4734   23154614.033 7  23154613.22843  23154619.48943
     -2278.711       -1775.651  
 130883126.501   101986861.0794   24906234.109 6  24906231.44241  24906237.93441
      1324.340        1031.945  
 01 12 19 14 50 49.0000000  0  9G10G25G30G 5G 6G29G17G24G 1         
 132340131.872   103122206.2344   25183494.446 5  25183491.66741  25183497.60341
      2665.179        2076.705  
 114696338.770    89373784.8054   21825985.959 7  21825985.79145  21825989.56045
       533.144         415.431  
 109358169.701    85214174.9774   20810167.699 8  20810167.86845  20810170.98745
     -2212.332       -1723.882  
 123890198.611    96537827.1044   23575521.562 6  23575520.05042  23575525.85542
     -3709.197       -2890.357  
 108681532.832    84686922.4774   20681405.200 8  20681404.76346  20681408.67046
       496.259         386.712  
 128235565.519                    24402419.441 4                                
     -3058.490                  
 134905556.673   105121230.1634   25671674.049 6  25671673.17241  25671683.35841
      3453.799        2691.245  
 121680601.311    94816074.7864   23155048.036 7  23155046.99343  23155053.11743
     -2279.901       -1776.569  
 130881803.243   101985829.9774   24905981.640 6  24905980.40341  24905985.56141
      1322.955        1030.911  
 01 12 19 14 50 50.0000000  0  9G10G25G30G 5G 6G29G17G24G 1         
 132337466.572   103120129.4054   25182987.933 5  25182984.47541  25182989.71941
      2665.016        2076.640  
 114695805.979    89373369.6464   21825884.341 7  21825884.27045  21825888.23145
       532.373         414.823  
 109360382.201    85215899.0044   20810588.386 8  20810588.93945  20810592.02746
     -2212.845       -1724.302  
 123893907.939    96540717.4884   23576227.611 6  23576226.20342  23576231.90642
     -3709.504       -2890.504  
 108681036.713    84686535.8914   20681310.770 8  20681310.30746  20681314.23246
       495.801         386.345  
 128238623.302                    24402999.690 4                                
     -3058.202                  
 134902102.885   105118538.9014   25671016.462 6  25671015.93741  25671027.66541
      3453.699        2691.226  
 121682881.464    94817851.5284   23155482.075 7  23155481.41243  23155487.37543
     -2280.560       -1777.076  
 130880480.544   101984799.2944   24905729.521 6  24905728.39541  24905733.42941
      1322.411        1030.402  
 01 12 19 14 50 51.0000000  0  9G10G25G30G 5G 6G29G17G24G 1         
 132334801.690   103118052.8824   25182481.396 5  25182477.34341  25182481.60641
      2664.629        2076.357  
 114695273.994    89372955.1164   21825782.982 7  21825782.99345  21825786.93945
       531.531         414.152  
 109362595.382    85217623.5644   20811009.804 8  20811010.07845  20811013.13845
     -2213.587       -1724.889  
 123897617.631    96543608.1584   23576933.569 6  23576932.65242  23576937.25842
     -3710.100       -2890.991  
 108680541.315    84686149.8674   20681216.538 8  20681216.16245  20681220.09046
       494.921         385.633  
 128241681.613                    24403581.720 4                                
     -3058.365                  
 134898649.289   105115847.7884   25670359.848 6  25670359.10041  25670371.00441
      3453.595        2691.143  
 121685162.346    94819628.8354   23155915.504 7  23155915.61743  23155921.39443
     -2281.495       -1777.790  
 130879158.613   101983769.2144   24905478.350 5  24905477.43041  24905482.92341
      1321.395        1029.727  
 01 12 19 14 50 52.0000000  0  9G10G25G30G 5G 6G29G17G24G 1         
 132332137.044   103115976.5324   25181973.632 5  25181971.59041  25181974.11041
      2664.144        2075.980  
 114694742.507    89372540.9694   21825682.083 7  21825681.81445  21825685.91345
       530.883         413.649  
 109364808.919    85219348.3984   20811431.133 8  20811431.25345  20811434.44145
     -2213.972       -1725.189  
 123901327.379    96546498.8704   23577639.400 6  23577638.69642  23577642.54542
     -3710.008       -2890.931  
 108680046.312    84685764.1524   20681122.295 8  20681121.85546  20681125.82046
       494.484         385.306  
 128244740.104                    24404165.888 4                                
     -3058.853                  
 134895195.548   105113156.5694   25669702.411 6  25669702.04341  25669713.23941
      3453.785        2691.279  
 121687443.653    94821406.4834   23156349.652 7  23156350.05043  23156355.79843
     -2281.681       -1777.984  
 130877837.115   101982739.4984   24905226.245 5  24905225.03441  24905231.20341
      1321.100        1029.375  
 01 12 19 14 50 53.0000000  0  9G10G25G30G 5G 6G29G17G24G 1         
 132329472.737   103113900.4254   25181467.503 5  25181462.79041  25181466.82541
      2663.992        2075.874  
 114694211.813    89372127.4444   21825581.074 7  21825580.79745  21825584.99745
       530.242         413.162  
 109367023.111    85221073.7454   20811852.349 8  20811852.54445  20811855.78045
     -2214.724       -1725.785  
 123905037.500    96549389.8664   23578344.422 6  23578344.21642  23578348.91642
     -3710.208       -2891.074  
 108679552.003    84685378.9794   20681028.141 8  20681027.82846  20681031.89246
       493.900         384.844  
 128247799.128                    24404747.314 4                                
     -3059.190                  
 134891741.992   105110465.4804   25669045.089 6  25669044.78641  25669056.56241
      3453.303        2690.893  
 121689725.671    94823184.6674   23156784.092 6  23156784.29843  23156789.98443
     -2282.390       -1778.482  
 130876516.265   101981710.2804   24904975.232 5  24904973.89341  24904981.27741
      1320.462        1028.861  
 01 12 19 14 50 54.0000000  0  9G10G25G30G 5G 6G29G17G24G 1         
 132326808.944   103111824.7714   25180958.840 5  25180955.34741  25180960.86141
      2663.487        2075.401  
 114693681.912    89371714.5354   21825480.690 8  21825479.96245  21825484.26445
       529.404         412.521  
 109369237.949    85222799.5904   20812273.870 8  20812274.04745  20812277.25446
     -2215.288       -1726.205  
 123908747.972    96552281.1344   23579050.998 6  23579050.46242  23579055.26842
     -3710.712       -2891.453  
 108679058.384    84684994.3434   20680934.252 8  20680933.85246  20680937.78646
       493.133         384.256  
 128250858.631                    24405328.706 4                                
     -3059.965                  
 134888288.540   105107774.4684   25668388.022 6  25668387.65241  25668399.83741
      3453.162        2690.756  
 121692008.424    94824963.4444   23157218.107 6  23157218.33143  23157224.27843
     -2283.081       -1779.011  
 130875196.212   101980681.6734   24904724.172 6  24904722.44941  24904729.38541
      1319.650        1028.327  
 01 12 19 14 50 55.0000000  0  9G10G25G30G 5G 6G29G17G24G 1         
 132324145.596   103109749.4454   25180451.552 5  25180447.94541  25180453.20741
      2663.353        2075.251  
 114693152.858    89371302.2884   21825379.862 7  21825379.26445  21825383.61345
       528.745         412.001  
 109371453.480    85224525.9774   20812695.664 8  20812695.70645  20812698.78846
     -2215.809       -1726.617  
 123912458.849    96555172.7274   23579758.464 6  23579757.05542  23579761.44042
     -3710.942       -2891.697  
 108678565.508    84684610.2834   20680840.645 8  20680840.00946  20680843.85746
       492.704         383.931  
 128253918.650                    24405910.997 4                                
     -3060.097                  
 134884835.323   105105083.6374   25667731.048 6  25667730.66741  25667741.95841
      3453.364        2690.826  
 121694291.917    94826742.7854   23157651.965 6  23157652.57143  23157658.76243
     -2283.699       -1779.504  
 130873877.033   101979653.7504   24904473.038 5  24904471.97541  24904477.92341
      1319.090        1027.902  
 01 12 19 14 50 56.0000000  0  9G10G25G30G 5G 6G29G17G24G 1         
 132321482.512   103107674.3184   25179945.053 5  25179940.35641  25179948.00141
      2663.208        2075.236  
 114692624.370    89370890.4834   21825279.537 8  21825278.73945  21825283.17545
       528.596         411.880  
 109373669.462    85226252.7184   20813117.277 8  20813117.38446  20813120.40146
     -2215.886       -1726.672  
 123916169.870    96558064.4384   23580464.093 6  23580462.83642  23580466.98742
     -3710.766       -2891.468  
 108678073.110    84684226.6004   20680746.866 8  20680746.49446  20680750.33246
       492.470         383.737  
 128256978.888                    24406492.699 4                                
     -3060.173                  
 134881382.042   105102392.7424   25667074.454 6  25667072.19041  25667081.84541
      3453.766        2691.281  
 121696575.935    94828522.5544   23158087.456 7  23158087.14743  23158093.21243
     -2283.977       -1779.713  
 130872558.317   101978626.1734   24904222.255 6  24904220.71841  24904227.37641
      1318.793        1027.662  
 01 12 19 14 50 57.0000000  0  9G10G25G30G 5G 6G29G17G24G 1         
 132318819.448   103105599.1974   25179438.838 5  25179432.76641  25179440.98341
      2662.764        2074.873  
 114692096.279    89370478.9854   21825178.765 7  21825178.16345  21825182.68645
       527.877         411.334  
 109375885.663    85227979.6284   20813539.396 8  20813539.30445  20813542.26146
     -2216.354       -1727.028  
 123919880.830    96560956.0944   23581169.561 6  23581168.78642  23581172.60942
     -3711.006       -2891.706  
 108677580.982    84683843.1264   20680653.189 8  20680652.82046  20680656.66446
       491.953         383.329  
 128260039.370                    24407077.812 4                                
     -3061.125                  
 134877928.504   105099701.6894   25666416.898 6  25666415.08841  25666424.76341
      3453.464        2691.038  
 121698860.230    94830302.5294   23158522.409 6  23158522.12043  23158527.88943
     -2284.678       -1780.269  
 130871239.863   101977598.7904   24903971.523 6  24903967.75741  24903975.99541
      1318.390        1027.389  
 01 12 19 14 50 58.0000000  0  9G10G25G30G 5G 6G29G17G24G 1         
 132316156.424   103103524.1034   25178931.021 5  25178927.75141  25178934.75341
      2662.833        2074.863  
 114691568.580    89370067.7874   21825078.193 8  21825077.82245  21825082.21945
       527.559         411.068  
 109378102.148    85229706.7544   20813961.310 8  20813961.03146  20813963.94646
     -2216.725       -1727.333  
 123923591.752    96563847.7024   23581874.142 6  23581874.74142  23581878.82042
     -3710.810       -2891.583  
 108677089.164    84683459.8924   20680559.601 8  20680559.30546  20680563.20046
       491.706         383.141  
 128263099.798                    24407660.939 4                                
     -3060.784                  
 134874474.735   105097010.4424   25665759.033 6  25665758.63441  25665765.88441
      3453.800        2691.305  
 121701144.856    94832082.7524   23158957.455 6  23158956.85343  23158962.87643
     -2284.572       -1780.194  
 130869921.811   101976571.7294   24903719.793 6  24903716.98841  24903725.78241
      1317.660        1026.775  
 01 12 19 14 50 59.0000000  0  9G10G25G30G 5G 6G29G17G24G 1         
 132313493.777   103101449.3164   25178423.980 5  25178421.02341  25178427.91741
      2662.407        2074.602  
 114691041.608    89369657.1634   21824977.856 7  21824977.45345  21824981.93045
       526.579         410.306  
 109380319.224    85231434.3464   20814383.368 8  20814382.86146  20814385.79946
     -2217.425       -1727.885  
 123927302.981    96566739.5784   23582579.974 6  23582580.34742  23582584.82842
     -3711.522       -2892.103  
 108676597.973    84683077.1454   20680466.276 8  20680465.97346  20680469.79046
       490.806         382.423  
 128266160.702                    24408239.737 4                                
     -3061.830                  
 134871021.028   105094319.2554   25665101.804 6  25665100.47941  25665109.32141
      3453.625        2691.067  
 121703430.147    94833863.4944   23159392.407 6  23159391.49643  23159397.73743
     -2285.739       -1781.131  
 130868604.425   101975545.1804   24903469.100 5  24903466.73141  24903473.92741
      1317.093        1026.331  
 01 12 19 14 51  0.0000000  0  9G10G25G30G 5G 6G29G17G24G 1         
 132310831.442   103099374.7784   25177916.462 5  25177914.70841  25177920.10741
      2661.960        2074.203  
 114690515.365    89369247.1084   21824878.020 7  21824877.25245  21824881.80045
       525.697         409.638  
 109382536.880    85233162.3954   20814805.459 8  20814804.98845  20814807.67446
     -2218.083       -1728.376  
 123931014.516    96569631.6924   23583287.589 6  23583287.09942  23583291.42742
     -3711.839       -2892.327  
 108676107.398    84682694.8884   20680372.828 8  20680372.44746  20680376.45346
       490.109         381.896  
 128269221.948                    24408822.083 4                                
     -3061.751                  
 134867567.417   105091628.1244   25664445.337 6  25664443.06141  25664452.68241
      3453.480        2690.995  
 121705716.082    94835644.7424   23159827.218 6  23159826.64643  23159832.61343
     -2286.394       -1781.535  
 130867287.697   101974519.1724   24903218.128 6  24903216.49741  24903223.89041
      1316.252        1025.625  
 01 12 19 14 51  1.0000000  0  9G10G25G30G 5G 6G29G17G24G 1         
 132308169.565   103097300.6184   25177412.997 5  25177406.51541  25177411.22241
      2661.654        2073.979  
 114689989.837    89368837.6034   21824778.088 8  21824777.09445  21824782.00245
       525.038         409.130  
 109384755.126    85234890.8904   20815227.486 8  20815227.04445  20815229.95145
     -2218.626       -1728.782  
 123934726.310    96572523.9974   23583993.888 6  23583993.34042  23583997.80742
     -3712.139       -2892.537  
 108675617.445    84682313.1044   20680279.621 8  20680279.26446  20680283.18846
       489.625         381.535  
 128272283.657                    24409405.326 4                                
     -3062.219                  
 134864113.893   105088937.0704   25663787.978 6  25663786.39441  25663795.10241
      3453.714        2691.230  
 121708002.632    94837426.4704   23160262.467 6  23160261.82043  23160267.53543
     -2286.810       -1781.933  
 130865971.662   101973493.6904   24902968.702 6  24902965.48241  24902973.52841
      1315.480        1025.012  
 01 12 19 14 51  2.0000000  0  9G10G25G30G 5G 6G29G17G24G 1         
 132305507.830   103095226.5674   25176904.442 5  25176900.43541  25176904.62241
      2661.171        2073.559  
 114689464.815    89368428.5034   21824678.046 8  21824677.20145  21824682.01145
       524.644         408.806  
 109386973.725    85236619.6714   20815649.155 8  20815649.13945  20815652.22645
     -2218.963       -1729.067  
 123938438.153    96575416.3544   23584700.458 6  23584700.12042  23584704.40642
     -3712.193       -2892.627  
 108675127.898    84681931.6414   20680186.324 8  20680186.09545  20680190.00446
       489.249         381.219  
 128275345.546                    24409987.284 4                                
     -3062.368                  
 134860660.263   105086245.9144   25663130.771 6  25663129.46641  25663139.44441
      3453.413        2690.982  
 121710289.632    94839208.5584   23160697.448 7  23160697.07243  23160702.73543
     -2287.457       -1782.428  
 130864656.017   101972468.5454   24902718.089 6  24902715.07841  24902723.52541
      1315.352        1024.837  
 01 12 19 14 51  3.0000000  0  9G10G25G30G 5G 6G29G17G24G 1         
 132302846.536   103093152.8314   25176398.375 5  25176394.32841  25176399.66741
      2661.242        2073.727  
 114688940.597    89368020.0254   21824578.283 8  21824577.42645  21824582.23145
       524.030         408.313  
 109389192.993    85238348.9744   20816071.459 8  20816071.47645  20816074.33245
     -2219.454       -1729.450  
 123942150.415    96578309.0214   23585406.687 6  23585406.56442  23585410.50342
     -3712.319       -2892.732  
 108674639.063    84681550.7334   20680093.419 8  20680093.01146  20680096.89446
       488.753         380.829  
 128278407.944                    24410572.698 4                                
     -3062.776                  
 134857206.733   105083554.8434   25662472.906 6  25662472.30641  25662482.74941
      3453.765        2691.162  
 121712577.353    94840991.1874   23161132.602 6  23161132.37943  23161138.02443
     -2287.787       -1782.676  
 130863341.188   101971443.9784   24902468.178 6  24902466.30841  24902473.69841
      1314.492        1024.271  
 01 12 19 14 51  4.0000000  0  9G10G25G30G 5G 6G29G17G24G 1         
 132300185.346   103091079.2134   25175890.887 5  25175888.03241  25175893.06041
      2661.015        2073.440  
 114688416.810    89367611.8844   21824478.418 8  21824477.93345  21824482.44645
       523.681         408.046  
 109391412.535    85240078.4884   20816494.114 8  20816493.95145  20816496.77846
     -2219.554       -1729.528  
 123945862.628    96581201.6424   23586113.837 6  23586112.62942  23586117.50942
     -3712.077       -2892.500  
 108674150.553    84681170.0764   20680000.437 8  20680000.02546  20680003.98745
       488.424         380.582  
 128281470.427                    24411155.079 4                                
     -3063.221                  
 134853753.040   105080863.6584   25661816.533 6  25661815.54641  25661825.60941
      3453.977        2691.348  
 121714865.424    94842774.0984   23161568.140 6  23161567.60643  23161573.22043
     -2288.221       -1783.019  
 130862026.655   101970419.6694   24902216.902 5  24902216.74241  24902223.34741
      1314.465        1024.230  
 01 12 19 14 51  5.0000000  0  9G10G25G30G 5G 6G29G17G24G 1         
 132297524.303   103089005.6694   25175382.817 5  25175382.65141  25175386.69841
      2661.055        2073.580  
 114687893.599    89367204.1914   21824378.612 8  21824378.32245  21824382.84445
       522.786         407.379  
 109393632.520    85241808.3494   20816916.710 8  20816916.41545  20816919.04845
     -2220.270       -1730.074  
 123949575.002    96584094.4084   23586819.526 6  23586818.79942  23586823.61342
     -3712.526       -2892.867  
 108673662.506    84680789.7794   20679907.432 8  20679907.01046  20679910.91946
       487.664         379.995  
 128284533.184                    24411737.577 4                                
     -3062.669                  
 134850299.330   105078172.4564   25661158.705 6  25661158.03541  25661167.93841
      3453.695        2691.209  
 121717154.001    94844557.4154   23162003.703 7  23162003.15643  23162008.84043
     -2288.983       -1783.630  
 130860712.660   101969395.7714   24901966.977 5  24901966.15341  24901972.41041
      1313.504        1023.570  
 01 12 19 14 51  6.0000000  0  9G10G25G30G 5G 6G29G17G24G 1         
 132294863.629   103086932.4174   25174877.566 5  25174877.06841  25174880.88541
      2661.494        2073.875  
 114687371.050    89366797.0064   21824279.287 7  21824278.95945  21824283.45845
       522.518         407.164  
 109395853.006    85243538.5974   20817339.297 8  20817338.84246  20817341.70345
     -2220.513       -1730.272  
 123953287.569    96586987.3154   23587525.392 6  23587524.81542  23587530.73142
     -3712.549       -2892.960  
 108673175.013    84680409.9184   20679814.809 8  20679814.30346  20679818.11746
       487.360         379.767  
 128287596.232                    24412320.864 4                                
     -3062.628                  
 134846845.533   105075481.1784   25660501.673 6  25660501.53541  25660511.34841
      3454.147        2691.545  
 121719443.130    94846341.1434   23162439.757 7  23162438.80343  23162444.19143
     -2289.104       -1783.749  
 130859399.288   101968372.3754   24901717.429 6  24901716.52241  24901722.71941
      1313.228        1023.297  
 01 12 19 14 51  7.0000000  0  9G10G25G30G 5G 6G29G17G24G 1         
 132292203.096   103084859.2854   25174371.985 5  25174370.47141  25174374.77741
      2660.270        2072.959  
 114686848.952    89366390.1834   21824179.782 8  21824179.80045  21824183.95545
       521.804         406.589  
 109398073.827    85245269.1074   20817761.727 8  20817761.36445  20817764.33246
     -2221.122       -1730.748  
 123957000.212    96589880.2904   23588231.326 6  23588231.70742  23588237.36242
     -3712.928       -2893.173  
 108672687.897    84680030.3454   20679722.337 8  20679721.60646  20679725.41546
       486.815         379.339  
 128290659.521                    24412907.300 4                                
     -3063.163                  
 134843391.649   105072789.8344   25659844.492 6  25659843.69041  25659854.39141
      3453.936        2691.294  
 121721732.661    94848125.2044   23162875.120 7  23162874.26243  23162879.76043
     -2289.827       -1784.284  
 130858086.317   101967349.2634   24901467.340 6  24901466.28541  24901471.75741
      1312.610        1022.740  
 01 12 19 14 51  8.0000000  0  9G10G25G30G 5G 6G29G17G24G 1         
 132289542.728   103082786.2634   25173866.589 5  25173862.18741  25173868.66741
      2660.146        2072.940  
 114686327.445    89365983.8164   21824080.739 7  21824080.59445  21824084.69045
       521.130         406.082  
 109400295.072    85246999.9474   20818184.012 8  20818184.01446  20818187.10546
     -2221.596       -1731.096  
 123960712.937    96592773.3194   23588938.983 6  23588938.49342  23588943.54342
     -3712.754       -2893.029  
 108672201.228    84679651.1284   20679629.680 8  20679629.04446  20679632.86946
       486.316         378.948  
 128293722.932                    24413485.757 4                                
     -3063.358                  
 134839937.670   105070098.4364   25659187.108 6  25659186.16341  25659197.45141
      3453.901        2691.396  
 121724022.687    94849909.6484   23163310.671 7  23163310.05843  23163315.45543
     -2290.342       -1784.662  
 130856773.861   101966326.5644   24901217.782 6  24901216.67541  24901221.63141
      1312.218        1022.543  
 01 12 19 14 51  9.0000000  0  9G10G25G30G 5G 6G29G17G24G 1         
 132286882.771   103080713.5604   25173358.651 5  25173356.13241  25173362.62841
      2659.560        2072.288  
 114685806.633    89365577.9904   21823981.921 7  21823981.46845  21823985.60645
       520.573         405.630  
 109402516.899    85248731.2404   20818606.955 8  20818606.88445  20818609.73446
     -2222.034       -1731.460  
 123964425.984    96595666.5924   23589644.948 6  23589644.74542  23589650.30042
     -3713.267       -2893.487  
 108671715.190    84679272.4004   20679537.095 8  20679536.50246  20679540.38246
       485.865         378.581  
 128296786.933                    24414070.816 4                                
     -3063.985                  
 134836483.779   105067407.0834   25658529.410 6  25658528.33841  25658540.28441
      3454.065        2691.500  
 121726313.352    94851694.5844   23163746.266 6  23163745.86543  23163751.19543
     -2290.850       -1785.080  
 130855462.039   101965304.3674   24900968.422 6  24900967.88841  24900971.98141
      1311.692        1022.034  
 01 12 19 14 51 10.0000000  0  9G10G25G30G 5G 6G29G17G24G 1         
 132284223.224   103078641.1804   25172851.736 5  25172848.80041  25172856.61741
      2659.232        2072.191  
 114685286.630    89365172.7894   21823882.906 8  21823882.53245  21823886.67845
       519.663         404.935  
 109404739.359    85250463.0274   20819029.854 8  20819029.50845  20819032.63945
     -2222.705       -1731.984  
 123968139.342    96598560.1144   23590352.623 6  23590351.88342  23590356.86342
     -3713.536       -2893.675  
 108671229.846    84678894.2094   20679444.658 8  20679444.29446  20679448.09746
       485.016         377.933  
 128299851.325                    24414653.251 4                                
     -3064.952                  
 134833030.058   105064715.8544   25657872.444 6  25657871.41041  25657881.88341
      3453.490        2691.058  
 121728604.712    94853480.0684   23164183.044 7  23164182.53943  23164187.43943
     -2291.586       -1785.670  
 130854150.960   101964282.7424   24900718.439 6  24900719.24841  24900722.59541
      1310.726        1021.338  
 01 12 19 14 51 11.0000000  0  9G10G25G30G 5G 6G29G17G24G 1         
 132281563.984   103076569.0504   25172344.930 5  25172343.18041  25172349.35741
      2658.837        2071.768  
 114684767.329    89364768.1434   21823783.708 8  21823783.82045  21823787.70545
       518.844         404.282  
 109406962.400    85252195.2704   20819453.004 8  20819452.56845  20819455.60045
     -2223.504       -1732.609  
 123971853.002    96601453.8734   23591058.895 6  23591058.62542  23591063.87942
     -3713.812       -2893.857  
 108670745.090    84678516.4824   20679352.376 8  20679352.04046  20679355.81646
       484.383         377.432  
 128302916.040                    24415234.828 4                                
     -3064.095                  
 134829576.379   105062024.6664   25657215.743 6  25657215.08541  25657224.03541
      3453.323        2690.922  
 121730896.702    94855266.0314   23164618.678 7  23164618.69643  23164623.22543
     -2292.265       -1786.179  
 130852840.554   101963261.6394   24900469.681 6  24900469.12241  24900473.95441
      1309.822        1020.613  
 01 12 19 14 51 12.0000000  0  9G10G25G30G 5G 6G29G17G24G 1         
 132278905.009   103074497.1254   25171839.944 5  25171837.57841  25171845.69241
      2659.053        2072.027  
 114684248.546    89364363.8964   21823685.245 7  21823685.08945  21823689.11845
       518.817         404.279  
 109409185.813    85253927.7984   20819876.436 8  20819875.87046  20819878.69246
     -2223.378       -1732.509  
 123975566.736    96604347.6994   23591766.274 6  23591765.97642  23591770.63842
     -3713.568       -2893.746  
 108670260.769    84678139.0894   20679260.213 8  20679259.86646  20679263.79446
       484.389         377.446  
 128305981.101                    24415818.282 4                                
     -3065.019                  
 134826122.603   105059333.4024   25656557.746 6  25656556.93641  25656566.05541
      3454.026        2691.467  
 121733189.131    94857052.3344   23165055.032 7  23165055.02643  23165059.82043
     -2292.345       -1786.260  
 130851530.565   101962240.8724   24900219.660 6  24900220.08641  24900224.76941
      1310.126        1020.881  
 01 12 19 14 51 13.0000000  0  9G10G25G30G 5G 6G29G17G24G 1         
 132276246.582   103072425.6324   25171332.277 5  25171331.29641  25171341.22841
      2658.407        2071.478  
 114683730.717    89363960.3974   21823586.683 7  21823586.24845  21823590.55845
       517.454         403.193  
 109411410.024    85255660.9544   20820299.568 8  20820299.17845  20820302.02445
     -2224.629       -1733.486  
 123979280.980    96607241.9044   23592472.789 6  23592472.31242  23592476.62742
     -3714.296       -2894.265  
 108669777.288    84677762.3524   20679168.507 8  20679167.89746  20679171.77846
       483.064         376.403  
 128309046.665                    24416400.277 4                                
     -3065.823                  
 134822669.105   105056642.3554   25655901.284 6  25655899.07141  25655910.05341
      3453.379        2691.029  
 121735482.441    94858839.3344   23165491.517 7  23165491.20243  23165496.88243
     -2293.567       -1787.214  
 130850221.501   101961220.8244   24899970.584 6  24899970.54441  24899976.15741
      1308.800        1019.884  
 01 12 19 14 51 14.0000000  0  9G10G25G30G 5G 6G29G17G24G 1         
 132273588.604   103070354.4834   25170827.698 5  25170825.66641  25170834.92241
      2657.374        2070.741  
 114683213.615    89363557.4644   21823488.136 8  21823487.98545  21823492.19345
       516.630         402.534  
 109413634.823    85257394.5624   20820722.783 8  20820722.76345  20820725.45145
     -2225.226       -1733.944  
 123982995.541    96610136.3634   23593179.496 6  23593178.90242  23593183.44742
     -3714.883       -2894.691  
 108669294.440    84677386.1124   20679076.602 8  20679076.02946  20679079.90446
       482.405         375.864  
 128312112.809                    24416985.970 4                                
     -3066.893                  
 134819215.711   105053951.4054   25655244.413 6  25655242.54841  25655254.39441
      3453.320        2690.863  
 121737776.383    94860626.8234   23165928.807 7  23165928.07343  23165933.94243
     -2294.402       -1787.866  
 130848913.088   101960201.2894   24899721.613 6  24899721.38441  24899727.15241
      1308.030        1019.171  
 01 12 19 14 51 15.0000000  0  9G10G25G30G 5G 6G29G17G24G 1         
 132270930.852   103068283.4984   25170324.646 5  25170319.31941  25170329.14041
      2657.545        2070.897  
 114682697.159    89363155.0314   21823389.647 7  21823389.63845  21823393.92245
       516.417         402.378  
 109415860.135    85259128.5694   20821146.366 8  20821146.33245  20821148.94545
     -2225.362       -1734.041  
 123986710.280    96613030.9524   23593886.091 6  23593885.71642  23593890.39142
     -3714.442       -2894.330  
 108668812.137    84677010.2884   20678984.535 8  20678984.28146  20678988.09546
       482.218         375.755  
 128315179.075                    24417566.758 4                                
     -3066.095                  
 134815762.363   105051260.4574   25654586.260 6  25654585.08541  25654596.79341
      3453.662        2691.138  
 121740070.902    94862414.7614   23166365.677 7  23166364.76743  23166370.19943
     -2294.522       -1787.943  
 130847605.335   101959182.2694   24899473.517 6  24899471.86841  24899478.25541
      1307.655        1018.935  
 01 12 19 14 51 16.0000000  0  9G10G25G30G 5G 6G29G17G24G 1         
 132268273.489   103066212.8624   25169820.240 5  25169813.80741  25169825.04941
      2656.541        2069.989  
 114682181.494    89362753.2184   21823291.657 8  21823291.64345  21823295.80445
       515.035         401.330  
 109418086.096    85260863.0814   20821569.863 8  20821569.79945  20821572.57446
     -2226.486       -1734.920  
 123990425.403    96615925.8564   23594593.616 6  23594592.99942  23594597.59242
     -3715.615       -2895.284  
 108668330.509    84676634.9944   20678892.921 8  20678892.55945  20678896.47845
       481.057         374.851  
 128318245.924                    24418152.397 4                                
     -3067.399                  
 134812309.125   105048569.6364   25653929.489 6  25653927.73641  25653939.42141
      3452.848        2690.446  
 121742366.117    94864203.2424   23166801.901 7  23166801.48043  23166806.69943
     -2295.703       -1788.849  
 130846298.283   101958163.8034   24899224.187 6  24899223.50041  24899229.29741
      1306.390        1018.021  
 01 12 19 14 51 17.0000000  0  9G10G25G30G 5G 6G29G17G24G 1         
 132265616.520   103064142.5074   25169313.881 5  25169308.29341  25169319.09641
      2657.119        2070.572  
 114681666.450    89362351.8844   21823193.919 8  21823193.54545  21823197.97745
       514.877         401.202  
 109420312.528    85262597.9634   20821993.532 8  20821993.38246  20821996.31046
     -2226.511       -1734.944  
 123994140.671    96618820.8714   23595300.347 6  23595299.36342  23595304.99842
     -3715.315       -2895.059  
 108667849.418    84676260.1174   20678801.653 8  20678801.13246  20678804.91046
       480.968         374.771  
 128321313.067                    24418736.848 4                                
     -3066.951                  
 134808855.873   105045878.7954   25653272.856 6  25653270.79941  25653283.24141
      3453.611        2691.126  
 121744661.903    94865992.1684   23167238.241 7  23167238.53043  23167243.57643
     -2295.979       -1789.070  
 130844991.726   101957145.6944   24898975.265 5  24898975.53741  24898980.15341
      1306.258        1017.976  
 01 12 19 14 51 18.0000000  0  9G10G25G30G 5G 6G29G17G24G 1         
 132262959.737   103062072.3044   25168807.008 5  25168802.00241  25168812.79341
      2656.281        2069.839  
 114681151.957    89361950.9794   21823096.349 7  21823095.76045  21823100.07545
       514.236         400.685  
 109422539.368    85264333.1634   20822417.314 8  20822417.25246  20822420.05946
     -2226.990       -1735.326  
 123997856.068    96621715.9904   23596007.597 6  23596005.98842  23596012.05642
     -3715.315       -2895.032  
 108667368.759    84675885.5804   20678710.075 8  20678709.70646  20678713.38946
       480.481         374.385  
 128324380.468                    24419319.799 4                                
     -3066.969                  
 134805402.557   105043187.9044   25652615.695 6  25652613.36041  25652625.41841
      3453.433        2691.050  
 121746958.117    94867781.4274   23167675.027 7  23167675.42043  23167680.34543
     -2296.419       -1789.420  
 130843685.747   101956128.0534   24898727.091 5  24898725.94141  24898731.88041
      1306.026        1017.693  
 01 12 19 14 51 19.0000000  0  9G10G25G30G 5G 6G29G17G24G 1         
 132260302.992   103060002.0834   25168299.469 5  25168297.83641  25168307.96741
      2656.515        2070.094  
 114680637.928    89361550.4424   21822998.320 8  21822997.81245  21823002.24845
       513.877         400.422  
 109424766.531    85266068.6204   20822841.184 8  20822841.15946  20822843.88846
     -2227.200       -1735.468  
 124001571.486    96624611.1304   23596714.121 6  23596712.97242  23596718.96842
     -3715.216       -2894.978  
 108666888.473    84675511.3364   20678618.198 8  20678618.27346  20678621.86146
       480.313         374.284  
 128327448.020                    24419901.035 4                                
     -3067.282                  
 134801949.070   105040496.8724   25651958.824 6  25651956.18341  25651967.85241
      3453.587        2691.125  
 121749254.728    94869571.0024   23168112.339 7  23168112.27843  23168117.00543
     -2296.610       -1789.564  
 130842380.072   101955110.6264   24898479.239 5  24898477.88441  24898484.18841
      1305.172        1017.092  
 01 12 19 14 51 20.0000000  0  9G10G25G30G 5G 6G29G17G24G 1         
 132257646.430   103057932.0584   25167793.843 5  25167793.35141  25167803.20441
      2656.415        2069.875  
 114680124.398    89361150.2824   21822900.376 8  21822900.23645  21822904.63345
       513.044         399.764  
 109426994.025    85267804.3294   20823264.828 8  20823264.84345  20823267.57346
     -2227.867       -1736.000  
 124005286.949    96627506.2944   23597422.253 7  23597420.54442  23597425.63642
     -3715.695       -2895.352  
 108666408.573    84675137.3904   20678527.116 8  20678526.95946  20678530.55846
       479.515         373.663  
 128330515.681                    24420485.285 4                                
     -3068.291                  
 134798495.450   105037805.7304   25651300.500 6  25651298.80441  25651310.75041
      3453.468        2690.967  
 121751551.734    94871360.8804   23168548.535 7  23168549.16043  23168554.11943
     -2297.225       -1790.077  
 130841074.916   101954093.6054   24898230.167 6  24898229.94441  24898235.01041
      1304.705        1016.635  
 01 12 19 14 51 21.0000000  0  9G10G25G30G 5G 6G29G17G24G 1         
 132254990.324   103055862.3724   25167289.269 5  25167288.52541  25167296.47541
      2656.052        2069.755  
 114679611.738    89360750.8054   21822803.059 8  21822802.73845  21822807.01245
       512.435         399.292  
 109429222.292    85269540.6414   20823688.767 8  20823688.78046  20823691.68746
     -2228.389       -1736.416  
 124009002.874    96630401.8324   23598129.336 6  23598127.60342  23598132.59842
     -3715.685       -2895.385  
 108665929.452    84674764.0504   20678435.934 8  20678435.74546  20678439.44946
       478.893         373.142  
 128333584.045                    24421068.593 4                                
     -3068.610                  
 134795042.046   105035114.7614   25650642.247 6  25650642.00141  25650652.42141
      3453.564        2691.034  
 121753849.588    94873151.4134   23168985.758 7  23168986.07443  23168991.32343
     -2297.994       -1790.652  
 130839770.522   101953077.1864   24897982.056 6  24897980.83541  24897985.64241
      1304.448        1016.501  
 01 12 19 14 51 22.0000000  0  9G10G25G30G 5G 6G29G17G24G 1         
 132252334.540   103053792.9624   25166787.337 5  25166781.94941  25166789.89941
      2655.797        2069.387  
 114679099.629    89360351.7614   21822705.512 8  21822705.32445  21822709.57445
       511.989         398.960  
 109431450.950    85271277.2564   20824112.826 8  20824112.81945  20824115.92346
     -2228.769       -1736.703  
 124012718.909    96633297.4344   23598837.542 6  23598835.05042  23598839.47142
     -3715.766       -2895.394  
 108665450.778    84674391.0564   20678344.837 8  20678344.70146  20678348.23246
       478.662         372.981  
 128336652.504                    24421654.950 4                                
     -3068.425                  
 134791588.580   105032423.7504   25649984.986 6  25649985.40141  25649994.27541
      3453.606        2691.141  
 121756147.888    94874942.2984   23169424.218 7  23169423.47243  23169428.58343
     -2298.641       -1791.141  
 130838466.704   101952061.2474   24897734.066 6  24897733.14241  24897738.50541
      1303.728        1015.855  
 01 12 19 14 51 23.0000000  0  9G10G25G30G 5G 6G29G17G24G 1         
 132249678.866   103051723.6004   25166280.422 5  25166277.99641  25166284.48341
      2654.994        2068.871  
 114678587.950    89359953.0594   21822608.391 8  21822608.00545  21822612.17645
       511.025         398.190  
 109433679.881    85273014.0854   20824537.469 8  20824537.05845  20824540.20845
     -2229.566       -1737.322  
 124016434.964    96636193.0484   23599542.447 6  23599541.45142  23599546.23242
     -3716.676       -2896.093  
 108664972.426    84674018.3164   20678254.231 8  20678253.77446  20678257.28846
       477.743         372.260  
 128339721.167                    24422234.291 4                                
     -3068.776                  
 134788134.881   105029732.5494   25649329.748 6  25649328.04741  25649337.52541
      3453.183        2690.730  
 121758446.534    94876733.4514   23169861.727 7  23169860.22743  23169866.06943
     -2299.329       -1791.706  
 130837163.190   101951045.5204   24897485.445 5  24897484.79941  24897490.60941
      1303.080        1015.404  
 01 12 19 14 51 24.0000000  0  9G10G25G30G 5G 6G29G17G24G 1         
 132247023.772   103049654.6834   25165772.790 5  25165772.43241  25165778.63041
      2654.282        2068.291  
 114678077.306    89359555.1544   21822511.359 7  21822510.83845  21822514.90745
       510.461         397.728  
 109435909.727    85274751.6314   20824961.509 8  20824961.26346  20824964.54946
     -2230.037       -1737.723  
 124020151.587    96639089.1144   23600250.575 6  23600248.97742  23600253.70542
     -3716.628       -2896.073  
 108664495.028    84673646.3224   20678163.224 8  20678162.89546  20678166.43246
       477.226         371.842  
 128342790.569                    24422820.525 3                                
     -3069.976                  
 134784681.616   105027041.6984   25648672.333 6  25648670.63141  25648680.01241
      3452.969        2690.549  
 121760746.135    94878525.3474   23170299.177 7  23170297.90943  23170303.64843
     -2299.790       -1792.053  
 130835860.698   101950030.5714   24897237.917 6  24897237.24441  24897242.64441
      1302.215        1014.704  
 01 12 19 14 51 25.0000000  0  9G10G25G30G 5G 6G29G17G24G 1         
 132244368.986   103047585.9964   25165269.566 5  25165266.75941  25165274.64741
      2654.818        2068.735  
 114677567.378    89359157.8054   21822414.011 7  21822413.83045  21822417.85245
       509.938         397.344  
 109438140.131    85276489.6084   20825385.826 8  20825385.79145  20825388.94245
     -2230.325       -1737.931  
 124023868.460    96641985.3784   23600957.106 6  23600956.42942  23600961.22142
     -3716.521       -2896.013  
 108664018.213    84673274.7804   20678072.421 8  20678071.96046  20678075.70546
       476.818         371.522  
 128345860.208                    24423407.028 3                                
     -3069.569                  
 134781228.375   105024350.8414   25648014.409 6  25648013.48041  25648023.33541
      3453.462        2690.997  
 121763046.354    94880317.7224   23170736.437 7  23170735.84943  23170741.71243
     -2300.214       -1792.398  
 130834558.840   101949016.1494   24896990.762 6  24896989.41041  24896994.24741
      1301.973        1014.439  
 01 12 19 14 51 26.0000000  0  9G10G25G30G 5G 6G29G17G24G 1         
 132241714.683   103045517.6854   25164762.208 4  25164762.73741  25164768.58041
      2653.991        2068.076  
 114677058.118    89358760.9794   21822317.193 8  21822316.79045  21822321.07545
       508.820         396.483  
 109440371.078    85278228.0054   20825810.115 8  20825810.33945  20825813.43345
     -2231.176       -1738.566  
 124027585.590    96644881.8464   23601663.815 6  23601663.59442  23601668.44642
     -3717.249       -2896.574  
 108663541.978    84672903.6884   20677981.947 8  20677981.30546  20677985.22746
       475.976         370.901  
 128348930.308                    24423986.363 3                                
     -3070.571                  
 134777775.188   105021660.0314   25647357.013 6  25647357.51341  25647367.30541
      3453.194        2690.809  
 121765347.158    94882110.5614   23171174.708 7  23171173.58743  23171179.71743
     -2301.127       -1793.110  
 130833257.604   101948002.2104   24896742.249 6  24896741.54041  24896746.63741
      1301.058        1013.766  
 01 12 19 14 51 27.0000000  0  9G10G25G30G 5G 6G29G17G24G 1         
 132239060.665   103043449.6484   25164258.060 4  25164257.10541  25164263.36441
      2654.483        2068.379  
 114676549.679    89358364.7904   21822220.140 7  21822219.69345  21822224.24545
       508.491         396.231  
 109442602.688    85279966.9234   20826235.047 8  20826235.19245  20826237.97646
     -2231.469       -1738.806  
 124031303.126    96647778.6264   23602371.629 6  23602371.10242  23602376.04942
     -3717.431       -2896.737  
 108663066.464    84672533.1604   20677891.662 8  20677890.84246  20677894.65546
       475.647         370.637  
 128352000.899                    24424572.482 3                                
     -3070.386                  
 134774322.209   105018969.4104   25646700.648 6  25646700.53141  25646709.49241
      3453.288        2690.816  
 121767648.711    94883903.9794   23171613.136 7  23171611.99543  23171617.79743
     -2301.568       -1793.416  
 130831957.101   101946988.8394   24896494.528 6  24896494.74441  24896499.59641
      1300.825        1013.558  
 01 12 19 14 51 28.0000000  0  9G10G25G30G 5G 6G29G17G24G 1         
 132236406.637   103041381.5934   25163753.076 4  25163751.12741  25163757.61441
      2653.956        2068.007  
 114676041.375    89357968.7204   21822123.162 8  21822122.96545  21822127.54845
       508.119         395.915  
 109444834.305    85281705.8474   20826660.074 8  20826659.85946  20826662.58846
     -2231.686       -1738.973  
 124035020.331    96650675.1414   23603080.462 6  23603078.60842  23603083.07542
     -3717.127       -2896.462  
 108662590.993    84672162.6654   20677801.162 8  20677800.35846  20677804.21046
       475.339         370.396  
 128355071.319                    24425156.761 3                                
     -3070.690                  
 134770868.737   105016278.3854   25646043.308 6  25646043.69541  25646053.21541
      3453.683        2691.292  
 121769950.320    94885697.4454   23172050.897 7  23172050.01143  23172055.93143
     -2301.889       -1793.718  
 130830656.738   101945975.5704   24896247.022 6  24896247.42141  24896253.50741
      1300.184        1013.226  
 01 12 19 14 51 29.0000000  0  9G10G25G30G 5G 6G29G17G24G 1         
 132233752.905   103039313.7754   25163248.143 5  25163247.05141  25163253.02541
      2653.383        2067.496  
 114675533.811    89357573.2274   21822026.840 8  21822026.51545  21822030.83645
       506.981         395.049  
 109447066.489    85283445.2114   20827085.080 8  20827084.67246  20827087.36646
     -2232.575       -1739.680  
 124038737.831    96653571.8874   23603787.543 6  23603786.21642  23603790.95742
     -3717.616       -2896.858  
 108662116.142    84671792.6524   20677710.597 8  20677710.11346  20677713.89246
       474.520         369.743  
 128358142.188                    24425743.384 3                                
     -3072.019                  
 134767415.337   105013587.4314   25645385.907 6  25645385.98641  25645395.61941
      3453.298        2690.890  
 121772252.572    94887491.4074   23172488.677 7  23172488.42443  23172493.80343
     -2302.567       -1794.195  
 130829357.008   101944962.7914   24896000.030 6  24896000.41141  24896006.35441
      1299.356        1012.491  
 01 12 19 14 51 30.0000000  0  9G10G25G30G 5G 6G29G17G24G 1         
 132231099.464   103037246.1674   25162742.803 5  25162742.23441  25162748.41241
      2653.191        2067.353  
 114675026.871    89357178.2144   21821930.468 7  21821929.99645  21821934.45945
       506.871         394.972  
 109449299.170    85285184.9624   20827509.429 8  20827509.52245  20827512.11145
     -2232.627       -1739.699  
 124042455.522    96656468.7894   23604495.121 6  23604493.50642  23604498.60942
     -3717.602       -2896.814  
 108661641.814    84671423.0464   20677620.190 8  20677619.83546  20677623.56846
       474.376         369.659  
 128361213.250                    24426326.871 3                                
     -3071.397                  
 134763961.955   105010896.4694   25644729.417 6  25644728.75741  25644739.31141
      3453.602        2691.064  
 121774555.360    94889285.7884   23172926.928 7  23172926.49143  23172932.12343
     -2302.849       -1794.410  
 130828057.793   101943950.4064   24895752.708 6  24895752.26941  24895759.74841
      1299.338        1012.456  
 01 12 19 14 51 31.0000000  0  9G10G25G30G 5G 6G29G17G24G 1         
 132228446.046   103035178.5604   25162239.822 5  25162237.20541  25162242.86541
      2653.197        2067.455  
 114674520.365    89356783.5254   21821834.104 8  21821833.56045  21821837.95945
       506.114         394.362  
 109451532.153    85286924.9444   20827933.983 8  20827934.39345  20827936.98645
     -2233.268       -1740.221  
 124046173.204    96659365.6854   23605202.955 7  23605200.88142  23605205.99742
     -3717.899       -2897.058  
 108661167.819    84671053.7034   20677529.895 7  20677529.72046  20677533.44046
       473.694         369.089  
 128364284.521                    24426907.247 3                                
     -3071.972                  
 134760508.338   105008205.3084   25644072.558 6  25644072.35441  25644081.46441
      3453.676        2691.193  
 121776858.509    94891080.4454   23173364.827 7  23173364.78343  23173370.22943
     -2303.402       -1794.851  
 130826759.027   101942938.3794   24895505.558 6  24895504.55641  24895511.99141
      1298.459        1011.781  
 01 12 19 14 51 32.0000000  0  9G10G25G30G 5G 6G29G17G24G 1         
 132225792.781   103033111.0834   25161734.937 5  25161731.78541  25161738.81541
      2653.233        2067.410  
 114674014.302    89356389.1944   21821737.749 8  21821737.15945  21821741.68745
       505.733         394.072  
 109453765.427    85288665.1594   20828359.374 8  20828359.36045  20828361.97445
     -2233.612       -1740.484  
 124049890.916    96662262.6104   23605910.144 6  23605908.83942  23605913.56542
     -3717.845       -2897.012  
 108660694.195    84670684.6524   20677439.832 8  20677439.51946  20677443.25746
       473.168         368.684  
 128367356.057                    24427497.244 3                                
     -3072.142                  
 134757054.562   105005514.0574   25643415.040 6  25643414.77341  25643422.54341
      3453.982        2691.380  
 121779162.035    94892875.4134   23173803.310 7  23173803.09143  23173808.78343
     -2303.977       -1795.338  
 130825460.721   101941926.7044   24895258.737 5  24895256.18541  24895265.61641
      1297.946        1011.378  
 01 12 19 14 51 33.0000000  0  9G10G25G30G 5G 6G29G17G24G 1         
 132223139.894   103031043.9114   25161228.222 5  25161225.90041  25161234.13141
      2653.352        2067.521  
 114673508.978    89355995.4364   21821641.328 8  21821641.03645  21821645.64345
       505.084         393.582  
 109455999.274    85290405.8214   20828784.466 8  20828784.27145  20828786.99345
     -2234.083       -1740.838  
 124053608.885    96665159.7334   23606617.813 6  23606617.04242  23606621.15442
     -3718.061       -2897.197  
 108660221.164    84670316.0544   20677349.993 8  20677349.51846  20677353.24345
       472.849         368.456  
 128370427.857                    24428082.784 3                                
     -3072.027                  
 134753600.877   105002822.9004   25642757.398 6  25642757.53141  25642765.09241
      3453.648        2691.125  
 121781466.206    94894670.8664   23174242.347 7  23174241.71943  23174247.03143
     -2304.419       -1795.646  
 130824163.028   101940915.5054   24895013.013 5  24895009.06341  24895017.35541
      1297.362        1010.909  
 01 12 19 14 51 34.0000000  0  9G10G25G30G 5G 6G29G17G24G 1         
 132220487.067   103028976.7624   25160723.077 5  25160720.53141  25160728.28941
      2652.959        2067.273  
 114673004.044    89355601.9814   21821545.151 8  21821544.85945  21821549.58245
       504.720         393.297  
 109458233.373    85292146.6784   20829209.397 8  20829209.47245  20829212.14145
     -2234.091       -1740.856  
 124057326.837    96668056.8394   23607324.659 6  23607324.55942  23607328.77142
     -3717.761       -2896.968  
 108659748.441    84669947.6994   20677260.225 8  20677259.61646  20677263.31946
       472.651         368.295  
 128373499.772                    24428666.170 3                                
     -3071.934                  
 134750146.953   105000131.5284   25642100.646 6  25642100.15941  25642107.90741
      3453.954        2691.386  
 121783770.687    94896466.5614   23174680.869 7  23174680.28343  23174685.58143
     -2304.575       -1795.754  
 130822865.609   101939904.5374   24894766.170 5  24894762.62141  24894770.58841
      1297.416        1010.901  
 01 12 19 14 51 35.0000000  0  9G10G25G30G 5G 6G29G17G24G 1         
 132217834.755   103026910.0134   25160218.727 5  25160215.41541  25160223.14041
      2652.031        2066.477  
 114672500.001    89355209.2234   21821449.430 7  21821449.06445  21821453.43145
       503.629         392.435  
 109460468.241    85293888.1364   20829634.618 8  20829634.80445  20829637.56345
     -2235.165       -1741.696  
 124061045.253    96670954.3114   23608033.009 7  23608032.00542  23608036.35742
     -3718.635       -2897.625  
 108659276.512    84669579.9654   20677170.138 8  20677169.72346  20677173.47846
       471.562         367.454  
 128376572.163                    24429251.704 3                                
     -3073.326                  
 134746693.243   104997440.3194   25641443.343 6  25641442.64541  25641450.26641
      3453.684        2691.223  
 121786075.960    94898262.8744   23175119.767 7  23175118.92343  23175124.30143
     -2305.622       -1796.601  
 130821569.158   101938894.3104   24894518.686 5  24894516.40541  24894523.57241
      1296.050        1009.986  
 01 12 19 14 51 36.0000000  0  9G10G25G30G 5G 6G29G17G24G 1         
 130639759.890   101797241.3074   24859923.021 5  24859916.16141  24859926.16941
      2652.309        2066.704  
 113096575.894    88127216.4124   21521561.099 7  21521560.86945  21521565.11645
       503.627         392.434  
 107887285.614    84068031.5414   20530267.885 8  20530267.99545  20530271.01046
     -2235.093       -1741.635  
 122489347.348    95446254.6394   23308949.335 6  23308948.17542  23308951.37142
     -3718.253       -2897.332  
 107083384.429    83441612.1074   20377287.743 8  20377287.35946  20377291.10346
       471.668         367.526  
 126804227.812                    24130043.647 3                                
     -3071.474                  
 133167815.926   103767146.3254   25340993.174 6  25340991.89341  25341000.48541
      3453.959        2691.358  
 120212963.900    93672461.2734   22875766.603 7  22875765.38943  22875770.92843
     -2305.500       -1796.484  
 129244851.675   100710283.2694   24594479.074 5  24594478.12641  24594483.09941
      1296.284        1010.112  
 01 12 19 14 51 37.0000000  0  9G10G25G30G 5G 6G29G17G24G 1         
 130637107.765   101795174.7144   24859418.715 5  24859413.29241  24859421.17641
      2651.963        2066.413  
 113096072.696    88126824.3124   21521465.228 7  21521465.15445  21521469.34645
       502.910         391.896  
 107889521.012    84069773.4144   20530693.658 8  20530693.34945  20530696.49346
     -2235.662       -1742.066  
 122493065.730    95449152.0714   23309656.795 6  23309655.87142  23309658.80342
     -3718.457       -2897.446  
 107082913.134    83441244.8674   20377198.397 8  20377197.76846  20377201.32446
       471.027         367.034  
 126807300.452                    24130628.245 3                                
     -3072.732                  
 133164361.812   103764454.8044   25340335.948 6  25340334.10741  25340343.29541
      3454.015        2691.499  
 120215269.860    93674258.1234   22876204.876 7  22876204.44243  22876209.75843
     -2306.242       -1797.097  
 129243555.819   100709273.4934   24594231.145 5  24594231.18741  24594235.50741
      1295.671        1009.634  
 01 12 19 14 51 38.0000000  0  9G10G25G30G 5G 6G29G17G24G 1         
 130634455.958   101793108.3924   24858912.758 5  24858909.57041  24858917.51241
      2651.515        2066.043  
 113095570.271    88126432.8144   21521369.405 7  21521369.51345  21521373.84245
       502.079         391.233  
 107891757.053    84071515.7844   20531119.033 8  20531118.86245  20531122.11545
     -2236.234       -1742.521  
 122496784.430    95452049.7574   23310362.697 6  23310362.78442  23310366.55942
     -3718.803       -2897.762  
 107082442.494    83440878.1394   20377108.912 7  20377108.31346  20377111.81546
       470.485         366.607  
 126810373.565                    24131210.839 4                                
     -3073.173                  
 133160907.834   103761763.4034   25339678.457 6  25339677.44641  25339687.58141
      3453.927        2691.406  
 120217576.525    93676055.5264   22876643.546 7  22876643.59843  22876648.96143
     -2307.024       -1797.717  
 129242260.709   100708264.3364   24593983.574 5  24593984.69641  24593988.84141
      1295.119        1009.146  
 01 12 19 14 51 39.0000000  0  9G10G25G30G 5G 6G29G17G24G 1         
 130631804.499   101791042.3324   24858407.815 5  24858406.69641  24858412.43141
      2650.599        2065.347  
 113095068.406    88126041.7504   21521274.027 7  21521274.03345  21521278.20945
       501.454         390.757  
 107893993.515    84073258.4804   20531544.283 8  20531544.46045  20531547.40445
     -2236.681       -1742.852  
 122500503.231    95454947.5214   23311070.708 6  23311070.06742  23311074.25842
     -3718.876       -2897.871  
 107081972.329    83440511.7744   20377019.460 8  20377018.93646  20377022.37546
       469.863         366.139  
 126813446.943                    24131798.838 4                                
     -3074.513                  
 133157453.809   103759071.9424   25339021.635 6  25339021.27941  25339030.55841
      3454.062        2691.484  
 120219883.645    93677853.2714   22877082.343 7  22877082.67443  22877088.13543
     -2307.625       -1798.157  
 129240966.145   100707255.5884   24593738.123 5  24593738.40341  24593742.54841
      1294.109        1008.366  
 01 12 19 14 51 40.0000000  0  9G10G25G30G 5G 6G29G17G24G 1         
 130629153.241   101788976.4094   24857905.363 5  24857901.96941  24857908.02841
      2652.083        2066.617  
 113094567.220    88125651.2264   21521178.895 8  21521178.68345  21521182.85545
       501.510         390.796  
 107896230.517    84075001.5994   20531970.007 8  20531970.12045  20531973.24045
     -2236.657       -1742.828  
 122504222.315    95457845.5004   23311778.658 6  23311776.84942  23311782.12942
     -3718.744       -2897.687  
 107081502.750    83440145.8724   20376929.584 8  20376929.50546  20376932.99446
       469.868         366.151  
 126816520.807                    24132384.647 4                                
     -3072.571                  
 133153999.807   103756380.5004   25338364.475 6  25338363.31141  25338372.90941
      3454.704        2692.027  
 120222191.363    93679651.5024   22877521.219 7  22877521.79543  22877527.11143
     -2307.329       -1797.894  
 129239672.197   100706247.3524   24593493.065 5  24593490.81541  24593496.30441
      1294.081        1008.317  
 01 12 19 14 51 41.0000000  0  9G10G25G30G 5G 6G29G17G24G 1         
 130626501.956   101786910.5004   24857400.939 5  24857398.37941  24857403.04141
      2651.942        2066.349  
 113094066.254    88125260.8664   21521083.763 8  21521083.22945  21521087.50345
       500.868         390.284  
 107898467.572    84076744.7594   20532396.004 8  20532395.85045  20532398.88145
     -2237.118       -1743.224  
 122507941.155    95460743.2984   23312486.567 6  23312484.45342  23312489.89342
     -3718.888       -2897.856  
 107081033.269    83439780.0454   20376840.088 8  20376839.98946  20376843.57946
       469.310         365.691  
 126819594.394                    24132967.079 4                                
     -3073.952                  
 133150545.332   103753688.7014   25337708.095 6  25337706.43741  25337714.16041
      3454.670        2691.948  
 120224499.213    93681449.8354   22877961.075 7  22877961.07243  22877966.15043
     -2307.929       -1798.427  
 129238378.394   100705239.1804   24593246.323 5  24593245.46141  24593252.76841
      1293.603        1008.089  
 01 12 19 14 51 42.0000000  0  9G10G25G30G 5G 6G29G17G24G 1         
 130623851.497   101784845.2234   24856894.585 5  24856894.74641  24856898.63641
      2650.306        2065.182  
 113093566.462    88124871.4184   21520988.744 7  21520988.24445  21520992.37245
       499.375         389.129  
 107900705.654    84078488.7204   20532822.156 8  20532821.75545  20532824.88145
     -2238.261       -1744.093  
 122511660.720    95463641.6544   23313193.368 6  23313192.17942  23313198.03742
     -3719.690       -2898.468  
 107080564.832    83439415.0314   20376751.560 8  20376750.99646  20376754.55446
       468.246         364.871  
 126822668.874                    24133551.790 4                                
     -3074.561                  
 133147091.500   103750997.4044   25337050.665 6  25337048.80741  25337056.65641
      3453.843        2691.313  
 120226808.150    93683249.0074   22878401.037 7  22878400.34243  22878405.55943
     -2309.127       -1799.319  
 129237085.644   100704231.8684   24593001.287 5  24592998.50141  24593006.91341
      1292.590        1007.176  
 01 12 19 14 51 43.0000000  0  9G10G25G30G 5G 6G29G17G24G 1         
 130621201.088   101782779.9604   24856392.571 5  24856390.16241  24856395.28241
      2649.828        2064.862  
 113093067.118    88124482.3204   21520893.982 7  21520893.11945  21520897.62745
       499.034         388.850  
 107902944.055    84080232.9254   20533247.823 8  20533247.78445  20533250.74345
     -2238.669       -1744.430  
 122515380.274    95466539.9964   23313902.255 6  23313899.97142  23313906.09142
     -3719.521       -2898.339  
 107080096.784    83439050.3204   20376662.441 8  20376661.77645  20376665.40846
       467.745         364.460  
 126825743.489                    24134134.442 4                                
     -3075.517                  
 133143637.434   103748305.9374   25336392.318 6  25336392.48441  25336400.57741
      3454.104        2691.458  
 120229117.448    93685048.4594   22878840.600 7  22878839.82443  22878844.57443
     -2309.457       -1799.582  
 129235793.390   100703224.9194   24592756.001 5  24592753.78641  24592760.58941
      1291.677        1006.510  
 01 12 19 14 51 44.0000000  0  9G10G25G30G 5G 6G29G17G24G 1         
 130618551.161   101780715.0534   24855886.899 5  24855885.42841  24855890.69641
      2649.324        2064.475  
 113092568.522    88124093.7994   21520798.804 8  21520798.28545  21520802.55845
       497.989         388.049  
 107905183.055    84081977.5974   20533673.918 8  20533673.91145  20533676.51145
     -2239.460       -1745.031  
 122519100.182    95469438.6404   23314610.264 6  23314608.09342  23314613.54142
     -3720.300       -2898.949  
 107079629.344    83438686.0814   20376573.573 8  20376573.01946  20376576.60746
       466.991         363.884  
 126828818.481                    24134722.960 4                                
     -3076.172                  
 133140183.476   103745614.4994   25335735.402 6  25335735.53641  25335743.48741
      3453.623        2691.165  
 120231427.436    93686848.4534   22879279.560 7  22879279.22843  22879284.03243
     -2310.463       -1800.381  
 129234501.755   100702218.4574   24592508.167 5  24592508.34941  24592514.08641
      1291.202        1006.148  
 01 12 19 14 51 45.0000000  0  9G10G25G30G 5G 6G29G17G24G 1         
 130615901.477   101778650.3844   24855381.036 5  24855380.81541  24855387.91941
      2649.693        2064.618  
 113092070.651    88123705.8524   21520704.062 8  21520703.48945  21520707.76445
       497.407         387.578  
 107907422.638    84083722.7274   20534100.037 8  20534100.04945  20534102.48945
     -2239.833       -1745.332  
 122522820.343    95472337.4704   23315318.405 6  23315316.56942  23315322.08942
     -3720.259       -2898.884  
 107079162.558    83438322.3554   20376484.890 8  20376484.22146  20376487.75646
       466.486         363.488  
 126831893.870                    24135308.759 4                                
     -3075.335                  
 133136729.587   103742923.1644   25335077.918 6  25335078.15241  25335087.16041
      3454.138        2691.497  
 120233738.048    93688648.9394   22879719.958 7  22879718.97643  22879723.56343
     -2310.951       -1800.768  
 129233210.805   100701212.4914   24592262.720 5  24592262.67541  24592268.01441
      1290.672        1005.767  
 01 12 19 14 51 46.0000000  0  9G10G25G30G 5G 6G29G17G24G 1         
 130613252.229   101776586.0344   24854877.781 5  24854875.52241  24854884.47741
      2649.158        2064.260  
 113091573.469    88123318.4384   21520609.253 7  21520608.94345  21520613.20545
       496.885         387.190  
 107909662.742    84085468.2634   20534526.140 8  20534526.35145  20534528.79045
     -2240.301       -1745.686  
 122526540.742    95475236.4894   23316025.923 6  23316025.00442  23316030.42142
     -3720.447       -2899.064  
 107078696.344    83437959.0764   20376396.002 8  20376395.49246  20376399.06246
       465.926         363.047  
 126834969.737                    24135893.202 4                                
     -3076.011                  
 133133275.776   103740231.8904   25334421.567 6  25334420.63241  25334428.25741
      3453.927        2691.385  
 120236049.257    93690449.8814   22880158.905 7  22880158.83643  22880163.54743
     -2311.439       -1801.140  
 129231920.461   100700207.0084   24592018.524 5  24592018.17641  24592022.96141
      1290.016        1005.284  
 01 12 19 14 51 47.0000000  0  9G10G25G30G 5G 6G29G17G24G 1         
 130610603.168   101774521.8164   24854373.857 5  24854371.36841  24854379.92541
      2648.850        2063.977  
 113091076.836    88122931.4544   21520514.600 7  21520514.48045  21520518.74245
       496.249         386.655  
 107911903.261    84087214.1264   20534952.533 8  20534952.63545  20534955.39645
     -2240.688       -1746.021  
 122530261.270    95478135.6064   23316734.703 6  23316733.13342  23316738.44842
     -3720.579       -2899.147  
 107078230.548    83437596.1224   20376307.157 8  20376306.70646  20376310.34646
       465.686         362.840  
 126838045.839                    24136481.038 4                                
     -3075.939                  
 133129821.858   103737540.5004   25333763.392 6  25333762.91441  25333770.62041
      3453.995        2691.428  
 120238360.928    93692251.1874   22880598.608 7  22880598.82343  22880603.66143
     -2311.846       -1801.449  
 129230630.630   100699201.9334   24591773.777 5  24591773.70441  24591777.50141
      1289.552        1004.825  
 01 12 19 14 51 48.0000000  0  9G10G25G30G 5G 6G29G17G24G 1         
 130607954.534   101772457.9474   24853868.821 5  24853866.80341  24853876.35841
      2648.232        2063.575  
 113090580.952    88122545.0544   21520420.172 7  21520420.17945  21520424.42245
       495.578         386.150  
 107914144.401    84088960.4674   20535378.870 8  20535379.01345  20535382.07045
     -2241.266       -1746.454  
 122533982.117    95481034.9644   23317441.676 6  23317440.95142  23317446.47442
     -3720.938       -2899.479  
 107077765.441    83437233.7004   20376218.506 8  20376218.21246  20376221.89446
       464.810         362.181  
 126841122.139                    24137068.139 4                                
     -3076.244                  
 133126368.084   103734849.2684   25333106.350 6  25333104.82941  25333114.11541
      3453.962        2691.372  
 120240673.265    93694053.0044   22881038.557 7  22881038.90843  22881043.64843
     -2312.516       -1801.995  
 129229341.491   100698197.4124   24591527.126 5  24591529.04241  24591534.39741
      1288.917        1004.389  
 01 12 19 14 51 49.0000000  0  9G10G25G30G 5G 6G29G17G24G 1         
 130605306.219   101770394.3434   24853363.819 5  24853362.50641  24853371.55741
      2647.976        2063.356  
 113090085.802    88122159.2244   21520325.997 7  21520325.85745  21520330.35545
       494.806         385.556  
 107916386.127    84090707.2674   20535805.417 8  20535805.56545  20535808.61045
     -2241.832       -1746.873  
 122537703.251    95483934.5454   23318149.372 6  23318149.03542  23318153.69742
     -3721.163       -2899.585  
 107077300.934    83436871.7474   20376130.048 8  20376129.71446  20376133.42146
       464.281         361.785  
 126844199.329                    24137650.705 4                                
     -3076.939                  
 133122914.360   103732158.0564   25332448.820 6  25332448.15441  25332456.92241
      3454.006        2691.446  
 120242986.256    93695855.3334   22881479.498 7  22881478.81443  22881483.84243
     -2313.062       -1802.379  
 129228053.051   100697193.4574   24591281.858 5  24591283.33341  24591288.32441
      1288.385        1003.935  
 01 12 19 14 51 50.0000000  0  9G10G25G30G 5G 6G29G17G24G 1         
 130602658.138   101768330.9294   24852859.665 5  24852859.75941  24852866.59341
      2648.198        2063.514  
 113089591.231    88121773.8454   21520232.009 8  21520231.67245  21520236.11545
       494.374         385.222  
 107918628.302    84092454.4194   20536232.352 8  20536232.20245  20536235.27245
     -2242.285       -1747.212  
 122541424.518    95486834.2234   23318858.092 6  23318858.01242  23318860.43342
     -3721.105       -2899.527  
 107076836.936    83436510.1944   20376041.935 8  20376041.43446  20376045.24646
       463.861         361.461  
 126847276.354                    24138236.825 4                                
     -3077.200                  
 133119460.651   103729466.8614   25331791.681 6  25331791.28641  25331800.47541
      3453.771        2691.276  
 120245299.744    93697658.0504   22881919.834 7  22881919.25643  22881924.28843
     -2313.622       -1802.808  
 129226765.156   100696189.8974   24591036.574 5  24591038.15241  24591044.13041
      1287.554        1003.370  
 01 12 19 14 51 51.0000000  0  9G10G25G30G 5G 6G29G17G24G 1         
 130600010.448   101766267.8204   24852357.132 5  24852355.55441  24852362.20541
      2647.248        2062.744  
 113089097.330    88121388.9884   21520137.989 7  21520137.65845  21520142.10645
       493.399         384.477  
 107920870.969    84094201.9544   20536659.011 8  20536658.89545  20536662.02445
     -2243.178       -1747.928  
 122545146.006    95489734.0924   23319566.862 6  23319565.85942  23319568.51342
     -3721.727       -2900.030  
 107076373.474    83436149.0594   20375953.977 8  20375953.26546  20375957.04746
       462.911         360.724  
 126850353.849                    24138817.703 3                                
     -3077.938                  
 133116006.931   103726775.6354   25331134.681 6  25331134.26141  25331144.70241
      3453.451        2691.045  
 120247613.801    93699461.2084   22882359.671 7  22882359.24243  22882363.90843
     -2314.514       -1803.516  
 129225477.787   100695186.7564   24590791.832 5  24590794.24341  24590800.02241
      1287.148        1002.870  
 01 12 19 14 51 52.0000000  0  9G10G25G30G 5G 6G29G17G24G 1         
 130597362.971   101764204.8534   24851852.974 5  24851852.51841  24851857.10341
      2647.045        2062.668  
 113088604.005    88121004.5784   21520044.364 7  21520043.90545  21520048.32745
       493.395         384.467  
 107923114.080    84095949.8354   20537085.844 8  20537085.82645  20537088.98246
     -2243.040       -1747.834  
 122548867.626    95492634.0504   23320274.216 6  23320273.54542  23320277.18542
     -3721.390       -2899.748  
 107075910.491    83435788.2944   20375865.532 7  20375865.19146  20375868.87046
       463.042         360.810  
 126853431.670                    24139403.746 3                                
     -3078.257                  
 133112553.157   103724084.3794   25330477.203 6  25330477.96141  25330487.07341
      3453.946        2691.369  
 120249928.381    93701264.7834   22882800.096 7  22882799.17443  22882804.27743
     -2314.689       -1803.625  
 129224191.038   100694184.0674   24590547.831 5  24590550.66441  24590556.00941
      1286.628        1002.632  
 01 12 19 14 51 53.0000000  0  9G10G25G30G 5G 6G29G17G24G 1         
 130594715.880   101762142.1904   24851348.444 5  24851349.62641  24851354.63841
      2646.846        2062.489  
 113088111.505    88120620.8164   21519950.597 7  21519950.08145  21519954.73145
       492.043         383.405  
 107925357.858    84097698.2334   20537512.837 8  20537512.76045  20537515.80545
     -2244.148       -1748.691  
 122552589.661    95495534.3334   23320982.353 6  23320981.43642  23320985.34642
     -3722.228       -2900.450  
 107075448.237    83435428.0924   20375777.412 8  20375777.24946  20375780.77346
       461.886         359.915  
 126856509.819                    24139988.801 3                                
     -3077.812                  
 133109099.623   103721393.3074   25329819.544 6  25329821.10641  25329829.63041
      3453.506        2691.081  
 120252243.675    93703068.9134   22883241.311 7  22883239.74343  22883245.14543
     -2315.815       -1804.535  
 129222904.951   100693181.9074   24590302.071 5  24590306.03141  24590310.26741
      1285.967        1002.072  
 01 12 19 14 51 54.0000000  0  8G10G25G30G 5G 6G17G24G 1            
 130592068.901   101760079.6284   24850846.761 5  24850846.42641  24850851.66741
      2646.706        2062.340  
 113087619.388    88120237.3454   21519857.034 7  21519856.56945  21519861.10945
       491.936         383.344  
 107927601.889    84099446.8224   20537939.775 8  20537939.59645  20537942.86945
     -2244.085       -1748.619  
 122556311.649    95498434.5634   23321690.882 6  23321689.68242  23321693.88542
     -3721.915       -2900.156  
 107074986.265    83435068.1164   20375689.611 8  20375689.32146  20375692.86546
       461.843         359.891  
 133105645.763   103718701.9944   25329162.285 6  25329163.79041  25329172.60841
      3454.072        2691.531  
 120254559.264    93704873.2684   22883681.975 7  22883680.20743  22883685.93643
     -2315.810       -1804.521  
 129221619.253   100692180.0894   24590057.833 5  24590059.86741  24590065.72041
      1285.591        1001.736  
 01 12 19 14 51 55.0000000  0  8G10G25G30G 5G 6G17G24G 1            
 130589422.019   101758017.1374   24850343.076 5  24850341.72741  24850348.49741
      2646.883        2062.502  
 113087127.743    88119854.2464   21519763.437 7  21519763.18445  21519767.61445
       491.195         382.728  
 107929846.230    84101195.6654   20538366.897 8  20538366.74645  20538369.86745
     -2244.650       -1749.090  
 122560033.639    95501334.8154   23322398.922 6  23322398.39942  23322402.10242
     -3722.413       -2900.601  
 107074524.667    83434708.4314   20375601.918 8  20375601.41546  20375605.07946
       461.136         359.315  
 133102191.787   103716010.5774   25328505.657 6  25328505.86641  25328515.22541
      3453.892        2691.264  
 120256875.273    93706677.9404   22884122.420 7  22884121.23643  22884126.88843
     -2316.539       -1805.109  
 129220333.951   100691178.5594   24589813.670 5  24589814.22141  24589819.26341
      1284.874        1001.246  
 01 12 19 14 51 56.0000000  0  8G10G25G30G 5G 6G17G24G 1            
 130586775.811   101755955.1754   24849835.603 5  24849838.33641  24849844.12241
      2646.759        2062.362  
 113086637.124    88119471.9494   21519670.210 7  21519669.81045  21519674.13345
       490.524         382.236  
 107932091.471    84102945.2034   20538794.035 8  20538794.04445  20538797.08445
     -2245.300       -1749.593  
 122563756.197    95504235.5224   23323107.781 7  23323106.55742  23323110.14942
     -3722.371       -2900.562  
 107074063.979    83434349.4554   20375514.418 8  20375513.90445  20375517.37145
       460.571         358.872  
 133098738.182   103713319.4734   25327849.208 6  25327847.93141  25327858.59341
      3453.593        2691.077  
 120259192.190    93708483.3374   22884563.324 7  22884562.49743  22884567.97943
     -2317.104       -1805.554  
 129219049.668   100690177.8344   24589569.124 6  24589567.84641  24589574.79841
      1284.057        1000.586  
 01 12 19 14 51 57.0000000  0  8G10G25G30G 5G 6G17G24G 1            
 130584129.935   101753893.4594   24849332.829 5  24849335.09741  24849339.22941
      2645.904        2061.812  
 113086147.062    88119090.0824   21519577.253 7  21519576.68845  21519580.69545
       489.737         381.623  
 107934337.115    84104695.0564   20539221.370 8  20539221.45845  20539224.50045
     -2245.930       -1750.085  
 122567478.907    95507136.3454   23323815.713 6  23323814.94742  23323818.84442
     -3723.027       -2901.054  
 107073603.745    83433990.8364   20375426.804 8  20375426.25746  20375429.83446
       460.004         358.444  
 133095284.485   103710628.2714   25327192.437 6  25327190.20541  25327200.92241
      3453.701        2691.158  
 120261509.581    93710289.1024   22885003.926 7  22885003.71743  22885008.71443
     -2317.677       -1805.970  
 129217765.843   100689177.4464   24589324.588 6  24589323.27141  24589329.47041
      1283.467        1000.173  
 01 12 19 14 51 58.0000000  0  8G10G25G30G 5G 6G17G24G 1            
 130581484.274   101751831.9154   24848828.994 4  24848831.45541  24848836.68441
      2645.371        2061.320  
 113085657.678    88118708.7474   21519484.345 7  21519483.61445  21519487.46745
       488.990         381.018  
 107936583.296    84106445.3254   20539648.648 8  20539648.70745  20539651.97745
     -2246.528       -1750.549  
 122571201.828    95510037.3314   23324524.350 6  23324523.56042  23324527.82142
     -3723.265       -2901.294  
 107073144.099    83433632.6694   20375338.993 7  20375338.84446  20375342.47346
       459.172         357.791  
 133091830.839   103707937.1134   25326534.374 6  25326532.50441  25326542.86841
      3453.751        2691.227  
 120263827.566    93712095.3274   22885445.433 7  22885445.02743  22885449.57943
     -2318.351       -1806.497  
 129216482.619   100688177.5254   24589080.877 6  24589080.15041  24589084.91341
      1282.902         999.649  
 01 12 19 14 51 59.0000000  0  8G10G25G30G 5G 6G17G24G 1            
 130578838.988   101749770.6294   24848325.436 4  24848326.68641  24848333.23441
      2645.002        2061.120  
 113085168.948    88118327.9254   21519391.188 7  21519390.53145  21519394.46045
       488.440         380.606  
 107938829.970    84108195.9814   20540075.785 8  20540076.19145  20540079.46945
     -2246.817       -1750.760  
 122574924.971    95512938.4664   23325231.803 6  23325231.83642  23325236.66442
     -3723.135       -2901.137  
 107072684.980    83433274.9174   20375251.782 8  20375251.37746  20375255.05746
       458.855         357.560  
 133088377.215   103705245.9774   25325876.529 6  25325875.71941  25325884.99641
      3453.551        2691.110  
 120266146.136    93713902.0174   22885886.128 7  22885886.12443  22885890.99643
     -2318.910       -1806.925  
 129215200.028   100687178.0984   24588836.547 6  24588835.50341  24588841.14741
      1282.396         999.285  
 01 12 19 14 52  0.0000000  0  8G10G25G30G 5G 6G17G24G 1            
 130576194.014   101747709.6334   24847824.123 4  24847823.50741  24847830.48341
      2645.108        2061.121  
 113084680.930    88117947.6484   21519298.269 7  21519297.78045  21519301.72645
       487.845         380.141  
 107941077.228    84109947.0924   20540503.760 8  20540504.00745  20540507.04245
     -2247.366       -1751.197  
 122578648.382    95515839.8244   23325940.174 6  23325939.97942  23325944.81642
     -3723.252       -2901.280  
 107072226.488    83432917.6514   20375164.600 8  20375164.14146  20375167.81746
       458.483         357.262  
 133084923.684   103702554.9164   25325219.061 6  25325218.12141  25325228.00441
      3453.790        2691.295  
 120268465.307    93715709.1514   22886327.266 7  22886327.11343  22886332.13743
     -2318.999       -1807.056  
 129213918.093   100686179.2004   24588592.573 6  24588592.07541  24588597.33241
      1281.852         998.842  
 01 12 19 14 52  1.0000000  0  8G10G25G30G 5G 6G17G24G 1            
 130573549.272   101745648.7964   24847321.458 4  24847321.10641  24847327.15041
      2645.167        2061.146  
 113084193.525    88117567.8564   21519205.188 7  21519204.89045  21519209.15745
       487.384         379.786  
 107943324.946    84111698.5654   20540932.233 8  20540931.89645  20540934.78745
     -2247.698       -1751.453  
 122582371.988    95518741.3284   23326649.519 6  23326648.71242  23326653.26642
     -3723.320       -2901.279  
 107071768.506    83432560.7884   20375077.623 7  20375077.00446  20375080.64546
       458.085         356.965  
 133081470.158   103699863.8634   25324562.062 6  25324560.82741  25324571.12241
      3453.635        2691.119  
 120270785.044    93717516.7384   22886768.805 7  22886768.54343  22886773.49143
     -2319.699       -1807.558  
 129212636.719   100685180.7244   24588348.503 6  24588348.16141  24588354.07041
      1281.371         998.443  
 01 12 19 14 52  2.0000000  0  8G10G25G30G 5G 6G17G24G 1            
 130570904.881   101743588.2274   24846820.126 4  24846815.95241  24846823.57341
      2644.617        2060.736  
 113083706.803    88117188.5934   21519112.474 7  21519112.19745  21519116.53245
       486.534         379.129  
 107945573.168    84113450.4284   20541360.145 8  20541359.84845  20541362.72945
     -2248.184       -1751.828  
 122586095.795    95521642.9864   23327358.035 6  23327357.33442  23327362.18742
     -3723.921       -2901.719  
 107071311.074    83432204.3474   20374990.656 8  20374989.86146  20374993.47846
       457.337         356.380  
 133078016.631   103697172.7884   25323903.823 6  25323903.70741  25323913.64141
      3453.673        2691.170  
 120273105.337    93719324.7704   22887210.188 7  22887209.74143  22887215.04943
     -2320.368       -1808.079  
 129211355.903   100684182.6784   24588104.998 6  24588104.75941  24588110.21041
      1280.854         998.049  
 01 12 19 14 52  3.0000000  0  8G10G25G30G 5G 6G17G24G 1            
 130568260.604   101741527.7704   24846316.865 4  24846312.03441  24846322.76941
      2644.031        2060.252  
 113083220.478    88116809.6394   21519020.104 7  21519019.68045  21519024.07945
       486.261         378.893  
 107947821.685    84115202.5204   20541787.974 8  20541787.79845  20541790.68745
     -2248.511       -1752.090  
 122589819.593    95524544.6454   23328066.315 6  23328065.35042  23328070.37942
     -3723.525       -2901.448  
 107070853.992    83431848.1794   20374903.638 8  20374902.88346  20374906.66246
       457.090         356.169  
 133074562.866   103694481.5264   25323247.006 6  25323245.97641  25323257.88041
      3454.074        2691.477  
 120275425.954    93721133.0424   22887652.144 7  22887651.65643  22887656.33643
     -2320.489       -1808.175  
 129210075.521   100683184.9654   24587861.074 6  24587861.38541  24587867.19941
      1280.323         997.603  
 01 12 19 14 52  4.0000000  0  8G10G25G30G 5G 6G17G24G 1            
 130565616.539   101739467.4664   24845813.031 5  24845809.21241  24845818.90941
      2643.625        2059.979  
 113082734.719    88116431.1274   21518927.789 7  21518927.19545  21518931.70045
       484.982         377.917  
 107950070.633    84116954.9464   20542215.471 8  20542215.67045  20542218.71945
     -2249.672       -1752.988  
 122593543.509    95527446.3974   23328775.201 6  23328774.12542  23328779.13342
     -3724.393       -2902.161  
 107070397.340    83431492.3514   20374816.098 8  20374815.96646  20374819.76046
       456.016         355.340  
 133071109.042   103691790.2384   25322590.400 6  25322588.63141  25322600.94241
      3453.489        2691.040  
 120277747.067    93722941.7034   22888093.759 7  22888093.25143  22888098.18743
     -2321.851       -1809.235  
 129208795.596   100682187.6294   24587618.227 6  24587617.48041  24587624.75741
      1279.175         996.720  
 01 12 19 14 52  5.0000000  0  8G10G25G30G 5G 6G17G24G 1            
 130562973.031   101737407.5914   24845310.428 5  24845307.93641  24845315.40941
      2643.047        2059.481  
 113082249.946    88116053.3854   21518835.819 7  21518835.11045  21518839.41245
       484.568         377.593  
 107952320.416    84118708.0204   20542643.864 8  20542643.90945  20542646.78846
     -2249.990       -1753.224  
 122597267.977    95530348.5754   23329483.821 6  23329482.83042  23329487.42942
     -3724.544       -2902.227  
 107069941.581    83431137.2154   20374729.695 7  20374729.33246  20374733.07846
       455.388         354.849  
 133067655.595   103689099.2114   25321932.871 6  25321931.57441  25321942.59141
      3453.473        2691.012  
 120280069.079    93724751.0664   22888535.732 7  22888535.22243  22888540.68743
     -2322.214       -1809.542  
 129207516.650   100681191.0484   24587374.718 6  24587374.17541  24587380.40841
      1278.675         996.432  
 01 12 19 14 52  6.0000000  0  8G10G25G30G 5G 6G17G24G 1            
 130560329.778   101735347.9134   24844807.444 5  24844804.97841  24844812.79641
      2642.556        2059.158  
 113081765.708    88115676.0544   21518743.878 7  21518742.94845  21518747.14745
       483.511         376.753  
 107954570.561    84120461.3784   20543072.111 8  20543071.96545  20543075.06345
     -2250.758       -1753.853  
 122600992.510    95533250.7984   23330193.104 7  23330191.60842  23330196.21242
     -3725.053       -2902.681  
 107069486.244    83430782.4064   20374642.948 8  20374642.77146  20374646.38846
       454.696         354.303  
 133064202.014   103686408.1084   25321276.943 6  25321275.19141  25321284.95241
      3453.215        2690.799  
 120282391.531    93726560.7644   22888977.452 7  22888977.07643  22888982.38643
     -2323.064       -1810.158  
 129206238.148   100680194.8134   24587130.494 6  24587130.47241  24587136.17441
      1277.860         995.783  
 01 12 19 14 52  7.0000000  0  8G10G25G30G 5G 6G17G24G 1            
 130557686.855   101733288.4734   24844304.428 5  24844305.02341  24844310.65341
      2642.955        2059.435  
 113081282.148    88115299.2604   21518651.361 7  21518650.74945  21518654.93145
       483.433         376.705  
 107956821.245    84122215.1594   20543500.049 8  20543500.12145  20543503.12745
     -2250.719       -1753.796  
 122604717.255    95536153.2074   23330901.999 6  23330900.30342  23330904.83542
     -3724.496       -2902.231  
 107069031.461    83430428.0344   20374556.425 8  20374556.16846  20374559.79346
       454.774         354.371  
 133060748.484   103683717.0634   25320619.863 6  25320618.39541  25320627.84941
      3453.653        2691.127  
 120284714.554    93728370.9084   22889420.349 7  22889419.48843  22889424.65143
     -2323.094       -1810.204  
 129204960.245   100679199.0544   24586887.666 5  24586885.99941  24586893.61541
      1277.764         995.709  
 01 12 19 14 52  8.0000000  0  8G10G25G30G 5G 6G17G24G 1            
 130555044.136   101731229.2054   24843801.161 5  24843801.84941  24843805.99041
      2642.029        2058.764  
 113080799.108    88114922.8694   21518559.140 7  21518558.82745  21518563.08645
       482.699         376.134  
 107959072.314    84123969.2384   20543928.247 8  20543928.42845  20543931.36845
     -2251.304       -1754.274  
 122608442.135    95539055.7104   23331610.614 6  23331609.39742  23331614.06942
     -3725.034       -2902.606  
 107068577.125    83430074.0074   20374469.897 7  20374469.63946  20374473.34946
       454.029         353.790  
 133057294.870   103681025.9294   25319961.986 6  25319961.59741  25319971.08042
      3453.550        2691.075  
 120287038.052    93730181.4274   22889862.635 7  22889861.90543  22889866.25543
     -2323.803       -1810.772  
 129203682.814   100678203.6594   24586643.812 6  24586643.25541  24586650.65241
      1277.259         995.299  
 01 12 19 14 52  9.0000000  0  8G10G25G30G 5G 6G17G24G 1            
 130552401.543   101729170.0474   24843299.012 5  24843296.90441  24843303.64641
      2642.639        2059.144  
 113080316.662    88114546.9394   21518467.188 7  21518467.07245  21518471.44445
       482.102         375.655  
 107961323.812    84125723.6594   20544356.812 8  20544356.73345  20544359.73245
     -2251.758       -1754.618  
 122612167.120    95541958.3054   23332319.789 6  23332318.16142  23332323.13542
     -3725.111       -2902.726  
 107068123.243    83429720.3364   20374383.524 7  20374383.15046  20374387.00045
       453.732         353.556  
 133053841.176   103678334.7384   25319304.594 6  25319304.33141  25319313.39742
      3453.734        2691.281  
 120289362.015    93731992.3114   22890304.785 7  22890304.29643  22890308.36543
     -2324.181       -1811.067  
 129202405.946   100677208.6824   24586402.107 6  24586400.21341  24586407.38541
      1276.506         994.700  
 01 12 19 14 52 10.0000000  0  8G10G25G30G 5G 6G17G24G 1            
 130549759.261   101727111.1194   24842795.556 5  24842794.28441  24842801.80341
      2641.994        2058.633  
 113079834.814    88114171.4684   21518375.731 7  21518375.39845  21518379.69645
       481.454         375.160  
 107963575.768    84127478.4294   20544785.128 8  20544785.34545  20544788.23845
     -2252.248       -1755.000  
 122615892.273    95544861.0124   23333028.832 6  23333027.37542  23333031.92942
     -3725.185       -2902.767  
 107067669.889    83429367.0754   20374296.833 8  20374296.73446  20374300.56446
       453.006         352.993  
 133050387.487   103675643.5534   25318646.864 6  25318647.22441  25318656.84142
      3453.567        2691.121  
 120291686.511    93733803.6064   22890746.605 7  22890746.79643  22890750.62243
     -2324.886       -1811.598  
 129201129.590   100676214.1204   24586159.235 6  24586157.09141  24586164.50441
      1275.911         994.127  
 01 12 19 14 52 11.0000000  0  8G10G25G30G 5G 6G17G24G 1            
 130547117.360   101725052.5054   24842291.927 5  24842291.97641  24842297.43641
      2641.711        2058.564  
 113079353.611    88113796.5104   21518284.036 7  21518283.72145  21518288.05145
       481.237         375.002  
 107965828.226    84129233.5884   20545213.965 8  20545214.00545  20545216.85745
     -2252.441       -1755.147  
 122619617.646    95547763.9024   23333736.763 6  23333735.45842  23333741.40042
     -3725.100       -2902.677  
 107067217.071    83429014.2294   20374211.008 7  20374210.59446  20374214.41845
       452.715         352.770  
 133046933.801   103672952.3754   25317989.922 6  25317989.58641  25317999.31942
      3453.832        2691.328  
 120294011.547    93735615.3274   22891189.157 7  22891189.04943  22891193.19743
     -2325.097       -1811.751  
 129199853.857   100675220.0464   24585916.647 6  24585914.51541  24585922.28041
      1275.601         993.961  
 01 12 19 14 52 12.0000000  0  8G10G25G30G 5G 6G17G24G 1            
 130544475.744   101722994.1434   24841790.290 5  24841788.85141  24841795.23041
      2640.783        2057.664  
 113078873.068    88113422.0604   21518192.675 7  21518192.23745  21518196.42445
       480.224         374.210  
 107968081.193    84130989.1494   20545642.460 8  20545642.61645  20545645.55545
     -2253.250       -1755.776  
 122623343.247    95550666.9714   23334445.776 6  23334445.13642  23334450.95142
     -3725.909       -2903.316  
 107066764.818    83428661.8254   20374125.250 7  20374124.56246  20374128.27545
       451.915         352.134  
 133043480.097   103670261.1744   25317332.473 6  25317331.88541  25317341.64742
      3453.665        2691.164  
 120296337.187    93737427.5134   22891631.302 7  22891631.53643  22891635.88443
     -2325.872       -1812.348  
 129198578.708   100674226.4194   24585672.931 6  24585671.82541  24585679.00041
      1274.811         993.371  
 01 12 19 14 52 13.0000000  0  8G10G25G30G 5G 6G17G24G 1            
 130541834.380   101720935.9504   24841287.271 5  24841286.95441  24841292.36841
      2641.186        2058.032  
 113078393.288    88113048.2084   21518101.422 7  21518100.94745  21518105.17145
       479.340         373.511  
 107970334.775    84132745.1874   20546071.073 8  20546071.33645  20546074.27845
     -2254.132       -1756.468  
 122627069.122    95553570.2514   23335155.678 6  23335154.30342  23335159.65942
     -3726.049       -2903.462  
 107066313.196    83428309.9174   20374039.401 8  20374038.78645  20374042.40345
       451.089         351.498  
 133040026.565   103667570.1054   25316675.937 6  25316674.22041  25316685.11942
      3453.308        2690.894  
 120298663.472    93739240.2084   22892074.014 7  22892074.24743  22892078.81243
     -2326.710       -1813.014  
 129197304.245   100673233.3254   24585430.300 6  24585430.24141  24585436.33841
      1273.975         992.670  
 01 12 19 14 52 14.0000000  0  8G10G25G30G 5G 6G17G24G 1            
 130539193.543   101718878.1674   24840784.367 5  24840784.21241  24840791.40441
      2640.715        2057.677  
 113077914.176    88112674.8754   21518010.261 7  21518009.73345  21518014.00745
       478.981         373.239  
 107972588.864    84134501.6224   20546500.018 8  20546500.15445  20546503.39145
     -2254.257       -1756.563  
 122630795.258    95556473.7354   23335864.727 6  23335863.30242  23335868.55142
     -3725.953       -2903.319  
 107065862.127    83427958.4364   20373953.536 7  20373952.93046  20373956.65745
       450.828         351.293  
 133036573.006   103664878.9964   25316019.011 6  25316017.82741  25316028.04942
      3453.595        2691.146  
 120300990.330    93741053.3414   22892516.756 6  22892516.66343  22892521.82443
     -2326.931       -1813.200  
 129196030.385   100672240.6844   24585188.284 6  24585187.60241  24585194.52041
      1273.483         992.388  
 01 12 19 14 52 15.0000000  0  8G10G25G30G 5G 6G17G24G 1            
 130536552.466   101716820.1634   24840281.897 5  24840281.24341  24840287.91141
      2641.256        2058.072  
 113077435.257    88112301.6924   21517918.867 7  21517918.34745  21517922.99845
       479.172         373.379  
 107974843.014    84136258.1044   20546929.186 8  20546929.11145  20546932.39345
     -2253.862       -1756.252  
 122634521.126    95559377.0094   23336574.435 6  23336572.37342  23336577.30842
     -3725.479       -2902.917  
 107065411.173    83427607.0464   20373867.601 7  20373866.95346  20373870.84146
       451.159         351.553  
 133033119.060   103662187.5994   25315361.282 6  25315360.81741  25315370.80942
      3454.262        2691.688  
 120303317.319    93742866.5864   22892960.178 7  22892959.32143  22892964.45743
     -2326.804       -1813.054  
 129194756.696   100671248.2234   24584945.437 6  24584945.68941  24584951.99241
      1273.603         992.412  
 01 12 19 14 52 16.0000000  0  8G10G25G30G 5G 6G17G24G 1            
 130533911.619   101714762.3854   24839779.435 5  24839778.56341  24839784.78541
      2640.632        2057.653  
 113076956.959    88111928.9964   21517828.141 7  21517827.39245  21517832.03945
       478.035         372.504  
 107977097.624    84138014.9444   20547358.312 8  20547358.30945  20547361.58545
     -2254.869       -1757.040  
 122638247.180    95562280.4074   23337283.284 6  23337281.52042  23337286.26142
     -3726.168       -2903.501  
 107064960.740    83427256.0614   20373781.843 7  20373781.24346  20373785.14046
       450.138         350.765  
 133029665.113   103659496.2014   25314704.347 6  25314703.09742  25314712.61942
      3454.135        2691.533  
 120305644.828    93744680.2294   22893402.724 7  22893402.17443  22893407.27043
     -2327.819       -1813.887  
 129193483.557   100670256.1714   24584703.618 6  24584703.97641  24584710.34441
      1272.926         991.877  
 01 12 19 14 52 17.0000000  0  8G10G25G30G 5G 6G17G24G 1            
 130531271.207   101712704.9274   24839276.609 5  24839276.67441  24839282.06741
      2639.913        2057.115  
 113076479.330    88111556.8164   21517737.186 8  21517736.52445  21517741.11745
       477.341         371.951  
 107979352.775    84139772.2064   20547787.551 8  20547787.46845  20547790.83246
     -2255.291       -1757.364  
 122641973.447    95565184.0034   23337991.840 6  23337990.00742  23337995.20542
     -3726.327       -2903.658  
 107064510.837    83426905.4904   20373696.074 7  20373695.62546  20373699.55446
       449.758         350.450  
 133026211.160   103656804.8034   25314046.189 6  25314045.18042  25314055.12642
      3453.909        2691.371  
 120307972.923    93746494.3344   22893845.991 7  22893845.38243  22893850.12243
     -2328.245       -1814.226  
 129192211.013   100669264.5724   24584460.841 6  24584460.80741  24584467.70541
      1272.320         991.432  
 01 12 19 14 52 18.0000000  0  8G10G25G30G 5G 6G17G24G 1            
 130528630.872   101710647.5324   24838774.654 4  24838775.25341  24838779.99641
      2639.577        2056.727  
 113076002.237    88111185.0624   21517646.103 7  21517645.56745  21517650.32645
       476.445         371.246  
 107981608.306    84141529.7604   20548216.918 8  20548216.62245  20548219.84945
     -2255.986       -1757.915  
 122645699.785    95568087.6424   23338699.625 6  23338698.47942  23338703.93542
     -3726.668       -2903.902  
 107064061.380    83426555.2654   20373610.555 8  20373610.18946  20373613.81846
       449.152         349.974  
 133022757.141   103654113.3694   25313389.065 6  25313388.19542  25313398.41042
      3453.834        2691.304  
 120310301.455    93748308.7754   22894289.331 7  22894288.58243  22894292.80343
     -2328.920       -1814.726  
 129190938.944   100668273.3694   24584219.219 6  24584217.93341  24584225.86341
      1271.692         990.911  
 01 12 19 14 52 19.0000000  0  8G10G25G30G 5G 6G17G24G 1            
 130525990.968   101708590.4764   24838269.643 4  24838273.09041  24838276.94641
      2639.487        2056.654  
 113075525.818    88110813.8304   21517555.701 7  21517555.03245  21517559.50545
       475.928         370.862  
 107983864.397    84143287.7524   20548646.023 8  20548645.84445  20548649.18745
     -2256.548       -1758.334  
 122649426.424    95570991.5234   23339408.947 6  23339407.78342  23339413.38542
     -3726.936       -2904.102  
 107063612.542    83426205.5244   20373525.229 7  20373524.73646  20373528.40346
       448.307         349.333  
 133019303.149   103651421.9654   25312731.623 6  25312731.21942  25312740.98542
      3453.606        2691.091  
 120312630.599    93750123.6864   22894733.008 7  22894731.88243  22894736.19643
     -2329.630       -1815.282  
 129189667.579   100667282.7174   24583977.042 6  24583975.72641  24583983.37141
      1270.766         990.247  
 01 12 19 14 52 20.0000000  0  8G10G25G30G 5G 6G17G24G 1            
 130523351.405   101706533.6764   24837767.910 4  24837769.27041  24837776.23341
      2639.462        2056.710  
 113075050.183    88110443.2074   21517465.302 7  21517464.59345  21517469.15645
       475.008         370.134  
 107986121.080    84145046.2074   20549075.300 8  20549075.31145  20549078.59545
     -2257.132       -1758.806  
 122653153.384    95573895.6414   23340117.942 6  23340116.96642  23340122.69542
     -3727.086       -2904.221  
 107063164.328    83425856.2674   20373439.783 8  20373439.52846  20373443.22146
       447.951         349.057  
 133015849.303   103648730.6614   25312075.346 6  25312074.13042  25312084.02342
      3453.746        2691.281  
 120314960.410    93751939.1174   22895175.863 7  22895175.10843  22895179.51343
     -2330.190       -1815.722  
 129188396.885   100666292.5554   24583735.917 6  24583734.40041  24583742.35441
      1270.052         989.760  
 01 12 19 14 52 21.0000000  0  8G10G25G30G 5G 6G17G24G 1            
 130520711.870   101704476.9044   24837265.997 4  24837266.49041  24837272.41641
      2639.030        2056.459  
 113074574.776    88110072.7594   21517374.354 7  21517374.18245  21517378.69245
       475.083         370.208  
 107988377.857    84146804.7364   20549505.077 8  20549504.88645  20549508.06745
     -2257.083       -1758.757  
 122656880.111    95576799.5734   23340827.676 6  23340825.99642  23340832.09742
     -3726.818       -2904.014  
 107062716.274    83425507.1354   20373354.668 8  20373354.30246  20373358.03646
       447.636         348.804  
 133012395.081   103646039.0654   25311418.232 6  25311416.81942  25311427.28442
      3454.083        2691.413  
 120317290.383    93753754.6844   22895619.514 7  22895618.66543  22895622.82043
     -2330.209       -1815.765  
 129187126.361   100665302.5034   24583492.244 5  24583493.39741  24583500.33641
      1270.076         989.708  
 01 12 19 14 52 22.0000000  0  8G10G25G30G 5G 6G17G24G 1            
 130518072.705   101702420.4234   24836761.968 4  24836763.07841  24836769.83341
      2638.727        2056.123  
 113074100.268    88109703.0164   21517283.849 7  21517283.68645  21517288.49445
       474.120         369.425  
 107990635.371    84148563.8374   20549934.595 8  20549934.36845  20549937.75046
     -2257.903       -1759.414  
 122660607.287    95579703.8584   23341537.521 6  23341535.73642  23341541.49542
     -3727.313       -2904.403  
 107062269.015    83425158.6244   20373269.594 8  20373269.08145  20373272.93545
       446.714         348.087  
 133008941.095   103643347.6384   25310760.900 6  25310759.35042  25310770.49542
      3453.824        2691.336  
 120319621.181    93755570.8914   22896062.217 7  22896062.33743  22896066.56843
     -2331.249       -1816.591  
 129185856.706   100664313.1534   24583251.809 5  24583251.03741  24583257.18841
      1269.184         989.096  
 01 12 19 14 52 23.0000000  0  8G10G25G30G 5G 6G17G24G 1            
 130515433.845   101700364.1704   24836261.414 4  24836260.30741  24836267.35241
      2639.056        2056.420  
 113073626.244    88109333.6464   21517194.093 8  21517193.75745  21517198.05845
       474.035         369.367  
 107992893.236    84150323.2154   20550364.022 8  20550363.93145  20550367.48245
     -2257.963       -1759.446  
 122664334.521    95582608.1914   23342247.082 6  23342245.03842  23342251.08342
     -3727.053       -2904.203  
 107061822.118    83424810.3964   20373184.533 8  20373184.07945  20373187.84945
       446.705         348.077  
 133005486.963   103640656.0914   25310103.293 6  25310102.69742  25310112.56642
      3454.257        2691.669  
 120321952.349    93757387.3884   22896506.057 7  22896505.99743  22896510.48243
     -2331.436       -1816.708  
 129184587.460   100663324.1184   24583010.060 5  24583009.27141  24583015.54241
      1269.148         988.911  
 01 12 19 14 52 24.0000000  0  8G10G25G30G 5G 6G17G24G 1            
 130512795.344   101698308.1904   24835758.213 4  24835758.31241  24835766.66041
      2638.170        2055.703  
 113073152.966    88108964.8584   21517104.261 8  21517103.84845  21517107.90245
       472.833         368.443  
 107995151.699    84152083.0584   20550793.636 8  20550793.78045  20550797.33845
     -2258.844       -1760.141  
 122668062.052    95585512.7654   23342956.090 6  23342954.86242  23342961.15342
     -3727.802       -2904.804  
 107061375.861    83424462.6634   20373099.648 8  20373099.08746  20373102.87546
       445.798         347.380  
 133002032.930   103637964.6254   25309445.911 6  25309444.97442  25309454.22942
      3454.050        2691.544  
 120324284.173    93759204.4094   22896949.545 7  22896949.35343  22896954.16943
     -2332.106       -1817.211  
 129183318.848   100662335.5824   24582768.125 5  24582766.19641  24582773.79441
      1268.209         988.139  
 01 12 19 14 52 25.0000000  0  8G10G25G30G 5G 6G17G24G 1            
 130510157.053   101696252.3754   24835255.884 4  24835254.39441  24835266.48241
      2637.697        2055.326  
 113072680.257    88108596.5174   21517014.114 8  21517013.88645  21517017.94545
       472.564         368.226  
 107997410.576    84153843.2244   20551223.576 8  20551223.62645  20551227.06045
     -2258.983       -1760.238  
 122671789.700    95588417.4314   23343664.827 6  23343664.09242  23343669.66342
     -3727.855       -2904.802  
 107060930.074    83424115.2984   20373014.716 7  20373014.29645  20373018.12045
       445.557         347.183  
 132998578.867   103635273.1524   25308789.440 6  25308787.68142  25308797.19442
      3454.562        2691.855  
 120326616.485    93761021.8014   22897393.134 6  22897392.62743  22897398.25243
     -2332.427       -1817.507  
 129182050.836   100661347.5454   24582526.972 5  24582525.05741  24582532.59541
      1267.725         987.791  
 01 12 19 14 52 26.0000000  0  8G10G25G30G 5G 6G17G24G 1            
 130507519.288   101694197.0014   24834754.573 4  24834752.70141  24834763.47141
      2638.156        2055.776  
 113072208.470    88108228.8914   21516924.462 7  21516924.16845  21516928.08545
       471.509         367.405  
 107999670.246    84155604.0104   20551653.305 8  20551653.65245  20551657.00146
     -2260.022       -1761.065  
 122675517.821    95591322.4554   23344373.628 6  23344373.29742  23344379.80142
     -3728.169       -2905.057  
 107060485.108    83423768.5754   20372930.022 8  20372929.67745  20372933.45346
       444.655         346.480  
 132995125.103   103632581.8994   25308131.091 6  25308130.32242  25308139.66442
      3453.860        2691.281  
 120328949.630    93762839.8384   22897837.009 7  22897836.21343  22897842.30543
     -2333.457       -1818.290  
 129180783.658   100660360.1204   24582286.647 5  24582284.29141  24582292.10341
      1266.971         987.315  
 01 12 19 14 52 27.0000000  0  8G10G25G30G 5G 6G17G24G 1            
 130504881.845   101692141.8484   24834251.832 4  24834251.83341  24834259.66441
      2637.389        2055.128  
 113071737.348    88107861.7864   21516834.777 8  21516834.37045  21516838.59745
       470.678         366.755  
 108001930.418    84157365.1824   20552083.340 8  20552083.60445  20552087.26945
     -2260.615       -1761.524  
 122679246.192    95594227.6754   23345082.795 6  23345082.45442  23345089.38042
     -3728.684       -2905.445  
 107060040.694    83423422.2814   20372845.477 7  20372845.03645  20372848.74646
       444.015         345.978  
 132991671.361   103629890.6654   25307474.075 6  25307473.57342  25307482.88042
      3453.598        2691.128  
 120331283.365    93764658.3304   22898281.017 7  22898280.02843  22898286.20943
     -2334.202       -1818.866  
 129179517.084   100659373.1984   24582045.316 5  24582042.58641  24582051.54341
      1266.301         986.613  
 01 12 19 14 52 28.0000000  0  8G10G25G30G 5G 6G17G24G 1            
 130502244.650   101690086.9054   24833752.852 4  24833750.55241  24833758.91741
      2636.688        2054.562  
 113071266.763    88107495.0994   21516745.291 8  21516744.74945  21516749.06545
       469.826         366.092  
 108004190.976    84159126.6534   20552513.834 8  20552513.96845  20552517.56145
     -2261.142       -1761.930  
 122682974.616    95597132.9474   23345792.559 6  23345792.22642  23345798.20242
     -3728.652       -2905.473  
 107059596.731    83423076.3324   20372761.212 8  20372760.47546  20372764.21946
       443.452         345.536  
 132988217.518   103627199.3624   25306816.520 6  25306816.11542  25306825.72942
      3453.830        2691.289  
 120333617.515    93766477.1414   22898726.194 7  22898724.45543  22898730.58143
     -2334.640       -1819.200  
 129178250.985   100658386.6024   24581805.036 5  24581802.36541  24581809.86841
      1265.372         986.003  
 01 12 19 14 52 29.0000000  0  8G10G25G30G 5G 6G17G24G 1            
 130499607.786   101688032.1794   24833249.450 4  24833250.86641  24833257.81941
      2636.631        2054.604  
 113070796.790    88107128.8884   21516655.706 7  21516655.29845  21516659.75345
       470.193         366.370  
 108006452.014    84160888.5034   20552944.200 8  20552944.33345  20552947.63445
     -2260.853       -1761.706  
 122686703.267    95600038.3834   23346502.432 6  23346501.86142  23346507.80642
     -3728.375       -2905.202  
 107059153.270    83422730.7834   20372676.691 7  20372676.10346  20372679.66446
       443.681         345.710  
 132984763.677   103624508.0614   25306160.022 6  25306159.35542  25306169.46342
      3454.086        2691.495  
 120335952.225    93768296.3984   22899170.489 7  22899168.92243  22899174.52143
     -2334.501       -1819.104  
 129176985.516   100657400.5414   24581563.083 5  24581561.79941  24581567.32841
      1265.454         986.005  
 01 12 19 14 52 30.0000000  0  8G10G25G30G 5G 6G17G24G 1            
 130496970.988   101685977.5344   24832749.225 4  24832749.85541  24832755.66341
      2636.079        2054.089  
 113070327.351    88106763.0904   21516566.404 7  21516565.95845  21516570.29345
       468.975         365.437  
 108008713.432    84162650.6474   20553374.205 8  20553374.50845  20553377.97345
     -2261.849       -1762.476  
 122690431.961    95602943.8654   23347212.052 6  23347211.47842  23347217.44742
     -3729.044       -2905.756  
 107058710.253    83422385.5784   20372592.310 8  20372591.84046  20372595.46145
       442.514         344.811  
 132981309.715   103621816.6484   25305502.854 6  25305502.22142  25305512.89342
      3453.555        2691.116  
 120338287.360    93770115.9934   22899614.792 7  22899613.83043  22899618.61943
     -2335.578       -1819.939  
 129175720.429   100656414.7524   24581323.192 5  24581322.56041  24581327.17741
      1264.369         985.120  
 01 12 19 14 52 31.0000000  0  8G10G25G30G 5G 6G17G24G 1            
 130494334.680   101683923.2924   24832247.278 4  24832248.96241  24832251.98741
      2635.695        2053.767  
 113069858.692    88106397.8974   21516477.259 8  21516476.72045  21516481.02845
       468.428         365.008  
 108010975.453    84164413.2604   20553804.958 8  20553805.08945  20553808.50145
     -2262.230       -1762.784  
 122694161.005    95605849.6004   23347921.304 6  23347921.09942  23347927.37842
     -3729.149       -2905.840  
 107058267.864    83422040.8584   20372508.017 8  20372507.74845  20372511.36345
       442.205         344.567  
 132977855.811   103619125.2994   25304844.549 6  25304844.98442  25304855.61842
      3453.828        2691.250  
 120340623.154    93771936.0894   22900058.636 7  22900058.54643  22900063.24243
     -2335.941       -1820.211  
 129174456.068   100655429.5324   24581082.344 5  24581081.26841  24581085.28041
      1264.268         985.091  
 01 12 19 14 52 32.0000000  0  8G10G25G30G 5G 6G17G24G 1            
 130491698.376   101681869.0394   24831746.366 4  24831748.56041  24831751.76941
      2636.108        2054.155  
 113069390.436    88106033.0254   21516388.023 8  21516387.78445  21516392.11545
       467.431         364.225  
 108013237.766    84166176.0994   20554235.487 8  20554235.48745  20554238.92745
     -2263.120       -1763.459  
 122697889.999    95608755.3034   23348631.085 6  23348630.77942  23348636.37342
     -3729.480       -2906.046  
 107057825.810    83421696.4034   20372424.079 8  20372423.66346  20372427.27746
       441.311         343.876  
 132974401.795   103616433.8544   25304187.513 6  25304187.46942  25304197.62342
      3453.675        2691.222  
 120342959.315    93773756.4744   22900503.412 7  22900503.40043  22900507.55043
     -2336.947       -1821.007  
 129173192.086   100654444.6334   24580842.007 5  24580841.30841  24580847.18341
      1263.406         984.459  
 01 12 19 14 52 33.0000000  0  8G10G25G30G 5G 6G17G24G 1            
 130489062.543   101679815.1514   24831246.643 4  24831247.40541  24831249.96541
      2635.695        2053.760  
 113068922.868    88105668.6864   21516298.909 7  21516298.77345  21516303.22545
       467.146         364.026  
 108015500.623    84167939.3664   20554665.912 8  20554665.99045  20554669.44546
     -2263.219       -1763.549  
 122701619.261    95611661.2184   23349341.279 6  23349339.96542  23349346.18742
     -3729.544       -2906.122  
 107057384.342    83421352.4024   20372339.872 8  20372339.67946  20372343.20146
       441.051         343.680  
 132970947.779   103613742.4104   25303531.110 6  25303531.08542  25303540.25342
      3454.137        2691.547  
 120345296.053    93775577.3114   22900948.606 7  22900948.25143  22900952.42943
     -2337.154       -1821.164  
 129171928.763   100653460.2024   24580600.572 5  24580599.70241  24580606.80541
      1262.974         984.183  
 01 12 19 14 52 34.0000000  0  8G10G25G30G 5G 6G17G24G 1            
 130486426.967   101677761.4434   24830745.580 4  24830747.06541  24830748.68441
      2635.407        2053.477  
 113068455.979    88105304.8764   21516210.230 8  21516209.86945  21516214.23945
       466.552         363.538  
 108017764.011    84169703.0464   20555096.588 8  20555096.77645  20555100.29545
     -2263.712       -1763.939  
 122705348.726    95614567.2994   23350050.919 6  23350049.73242  23350056.23442
     -3729.638       -2906.221  
 107056943.441    83421008.8474   20372256.010 7  20372255.65146  20372259.25146
       440.553         343.287  
 132967493.866   103611051.0574   25302873.164 6  25302874.42142  25302883.07042
      3453.707        2691.153  
 120347633.389    93777398.6094   22901393.286 7  22901392.98943  22901397.38443
     -2337.642       -1821.540  
 129170666.009   100652476.2254   24580360.100 5  24580361.43041  24580368.20741
      1262.643         983.938  
 01 12 19 14 52 35.0000000  0  8G10G25G30G 5G 6G17G24G 1            
 130483791.529   101675707.8484   24830243.737 5  24830246.46041  24830248.59041
      2635.454        2053.686  
 113067989.553    88104941.4344   21516121.509 8  21516121.08345  21516125.44645
       466.187         363.261  
 108020027.678    84171466.9374   20555527.446 8  20555527.52445  20555530.97945
     -2263.742       -1763.946  
 122709078.200    95617473.3964   23350759.979 6  23350759.24942  23350766.32842
     -3729.355       -2906.018  
 107056502.886    83420665.5584   20372172.197 8  20372171.84945  20372175.44646
       440.528         343.263  
 132964039.718   103608359.5044   25302216.367 6  25302216.37942  25302226.17542
      3454.344        2691.639  
 120349971.067    93779220.1814   22901838.090 7  22901837.71743  22901842.66043
     -2337.862       -1821.744  
 129169403.681   100651492.5974   24580120.059 5  24580120.52041  24580126.22341
      1262.183         983.572  
 01 12 19 14 52 36.0000000  0  8G10G25G30G 5G 6G17G24G 1            
 130481156.257   101673654.3824   24829740.507 5  24829744.59441  24829746.49341
      2634.924        2053.098  
 113067523.705    88104578.4384   21516033.522 8  21516032.51945  21516036.78545
       465.557         362.764  
 108022291.775    84173231.1694   20555957.917 8  20555958.10045  20555961.71145
     -2264.223       -1764.324  
 122712807.851    95620379.6134   23351470.112 6  23351469.24942  23351476.39842
     -3729.606       -2906.198  
 107056062.809    83420322.6434   20372088.316 8  20372088.04246  20372091.73546
       439.876         342.751  
 132960585.525   103605667.9034   25301558.876 6  25301558.02242  25301568.61642
      3454.256        2691.608  
 120352309.249    93781042.1444   22902282.933 7  22902282.45443  22902287.72543
     -2338.377       -1822.143  
 129168141.912   100650509.3854   24579880.965 5  24579880.81041  24579886.27141
      1261.693         983.117  
 01 12 19 14 52 37.0000000  0  8G10G25G30G 5G 6G17G24G 1            
 130478521.363   101671601.2464   24829238.302 5  24829241.37041  24829246.00741
      2635.003        2053.259  
 113067058.554    88104215.9874   21515944.772 8  21515944.00945  21515948.30845
       464.818         362.173  
 108024556.446    84174995.8504   20556388.622 8  20556388.94545  20556392.58345
     -2264.842       -1764.827  
 122716537.719    95623286.0004   23352180.471 6  23352179.50542  23352186.11242
     -3730.162       -2906.574  
 107055623.343    83419980.2074   20372004.757 8  20372004.35545  20372008.11846
       439.184         342.192  
 132957131.404   103602976.3894   25300901.948 6  25300901.15042  25300911.50342
      3454.149        2691.552  
 120354648.039    93782864.5754   22902728.113 7  22902727.19943  22902732.96443
     -2339.005       -1822.603  
 129166880.765   100649526.6864   24579640.992 5  24579640.30641  24579644.21841
      1260.948         982.536  
 01 12 19 14 52 38.0000000  0  8G10G25G30G 5G 6G17G24G 1            
 130475887.079   101669548.5694   24828736.677 4  24828738.30341  24828742.40341
      2634.410        2052.785  
 113066594.302    88103854.2354   21515856.229 8  21515855.74545  21515859.78145
       464.152         361.657  
 108026821.869    84176761.1164   20556819.746 8  20556819.84445  20556823.72245
     -2265.555       -1765.366  
 122720268.060    95626192.7584   23352890.444 6  23352889.41242  23352895.35342
     -3730.418       -2906.837  
 107055184.666    83419638.3834   20371921.316 8  20371920.86245  20371924.53246
       438.492         341.676  
 132953677.551   103600285.0784   25300244.674 6  25300243.71342  25300253.93242
      3454.327        2691.700  
 120356987.639    93784687.6414   22903173.905 7  22903172.70843  22903177.86043
     -2339.634       -1823.109  
 129165620.460   100648544.6144   24579401.343 5  24579400.66541  24579405.40041
      1260.151         981.970  
 01 12 19 14 52 39.0000000  0  8G10G25G30G 5G 6G17G24G 1            
 130473253.094   101667496.1114   24828236.943 4  24828237.55941  24828240.97541
      2633.911        2052.470  
 113066130.720    88103492.9994   21515768.257 8  21515767.71945  21515771.68545
       463.340         361.062  
 108029087.798    84178526.7754   20557251.249 8  20557251.00245  20557254.86645
     -2266.157       -1765.836  
 122723998.622    95629099.6874   23353599.508 6  23353599.73542  23353604.92042
     -3730.614       -2906.975  
 107054746.540    83419296.9864   20371837.766 8  20371837.34245  20371841.23445
       437.833         341.172  
 132950223.748   103597593.7984   25299587.143 6  25299586.12542  25299596.84742
      3453.887        2691.320  
 120359327.823    93786511.1564   22903619.054 7  22903617.83643  22903623.24443
     -2340.433       -1823.688  
 129164360.699   100647562.9764   24579161.470 6  24579161.19441  24579166.71941
      1259.392         981.324  
 01 12 19 14 52 40.0000000  0  8G10G25G30G 5G 6G17G24G 1            
 130470619.504   101665443.9894   24827736.409 4  24827737.28941  24827739.86841
      2633.723        2052.240  
 113065667.899    88103132.3654   21515679.666 7  21515679.65845  21515683.53545
       462.514         360.388  
 108031354.334    84180292.9104   20557682.392 8  20557682.33445  20557686.10745
     -2266.734       -1766.297  
 122727729.504    95632006.8774   23354309.751 6  23354309.89142  23354314.79142
     -3730.973       -2907.231  
 107054309.071    83418956.1084   20371754.386 8  20371753.98646  20371757.92945
       437.330         340.768  
 132946770.073   103594902.6244   25298930.534 6  25298929.52942  25298940.00542
      3453.995        2691.388  
 120361668.663    93788335.1984   22904064.062 7  22904063.24143  22904068.93443
     -2341.058       -1824.183  
 129163101.755   100646581.9874   24578922.581 6  24578922.27341  24578926.56041
      1258.824         980.848  
 01 12 19 14 52 41.0000000  0  8G10G25G30G 5G 6G17G24G 1            
 130467986.124   101663391.9924   24827234.538 5  24827235.95941  24827239.33241
      2633.277        2052.005  
 113065205.618    88102772.1414   21515591.781 8  21515591.58145  21515595.66845
       462.049         360.044  
 108033621.254    84182059.3434   20558113.338 8  20558113.67245  20558117.57245
     -2267.147       -1766.609  
 122731460.471    95634914.1204   23355020.085 6  23355019.84542  23355024.73542
     -3731.096       -2907.313  
 107053872.041    83418615.5654   20371671.296 8  20371670.91045  20371674.86945
       436.841         340.398  
 132943316.277   103592211.3424   25298272.404 6  25298272.36442  25298282.27442
      3453.889        2691.328  
 120364009.966    93790159.5894   22904509.615 7  22904508.88043  22904514.85843
     -2341.565       -1824.614  
 129161843.198   100645601.3034   24578683.320 6  24578682.89641  24578687.67541
      1258.118         980.319  
 01 12 19 14 52 42.0000000  0  8G10G25G30G 5G 6G17G24G 1            
 130465353.115   101661340.2964   24826735.992 5  24826734.17641  24826737.99441
      2632.596        2051.285  
 113064744.010    88102412.4514   21515504.049 8  21515503.63345  21515507.72545
       461.112         359.303  
 108035888.711    84183826.1934   20558544.878 8  20558545.14645  20558549.02245
     -2267.778       -1767.110  
 122735191.672    95637821.5484   23355729.835 6  23355729.49242  23355734.69342
     -3731.383       -2907.573  
 107053435.593    83418275.4804   20371588.248 8  20371587.87946  20371591.76346
       435.929         339.672  
 132939862.574   103589520.1394   25297615.215 6  25297615.30042  25297624.92042
      3453.699        2691.209  
 120366351.866    93791984.4534   22904954.865 7  22904955.21243  22904960.36343
     -2342.375       -1825.234  
 129160585.340   100644621.1744   24578443.895 6  24578443.10041  24578447.93441
      1257.526         979.859  
 01 12 19 14 52 43.0000000  0  8G10G25G30G 5G 6G17G24G 1            
 130462720.238   101659288.7184   24826234.609 5  24826233.32841  24826236.96941
      2632.879        2051.577  
 113064282.922    88102053.1624   21515416.192 7  21515415.82145  21515419.93645
       461.096         359.281  
 108038156.567    84185593.3514   20558976.593 8  20558976.72345  20558980.78945
     -2267.913       -1767.220  
 122738922.987    95640729.0634   23356439.114 6  23356439.38342  23356444.66642
     -3731.163       -2907.391  
 107052999.575    83417935.7284   20371505.108 8  20371504.84945  20371508.75545
       435.920         339.665  
 132936408.740   103586828.8294   25296959.025 6  25296957.84542  25296967.26742
      3454.046        2691.465  
 120368694.187    93793809.6364   22905401.137 7  22905401.19443  22905405.82743
     -2342.333       -1825.181  
 129159327.896   100643641.3604   24578204.867 6  24578204.24741  24578209.10441
      1257.519         979.843  
 01 12 19 14 52 44.0000000  0  8G10G25G30G 5G 6G17G24G 1            
 130460087.611   101657237.3544   24825732.720 5  24825730.28541  24825734.97641
      2632.985        2051.676  
 113063822.389    88101694.3064   21515328.674 7  21515328.15445  21515332.26445
       460.358         358.723  
 108040424.793    84187360.8024   20559408.532 8  20559408.45245  20559412.38945
     -2268.239       -1767.484  
 122742654.354    95643636.6204   23357149.555 6  23357148.64042  23357154.53642
     -3731.145       -2907.370  
 107052563.962    83417596.2914   20371422.458 8  20371421.88745  20371425.82445
       435.634         339.445  
 132932954.833   103584137.4824   25296301.851 6  25296301.08342  25296310.13442
      3454.223        2691.573  
 120371036.968    93795635.1794   22905847.518 7  22905846.77243  22905851.34943
     -2342.768       -1825.518  
 129158070.993   100642661.9434   24577964.904 6  24577964.17341  24577970.08241
      1256.962         979.477  
 01 12 19 14 52 45.0000000  0  8G10G25G30G 5G 6G17G24G 1            
 130457455.111   101655186.0634   24825231.048 5  24825228.23741  24825234.51341
      2632.094        2051.026  
 113063362.345    88101335.8294   21515241.298 8  21515240.67145  21515244.79545
       459.720         358.213  
 108042693.388    84189128.5374   20559840.443 8  20559840.31845  20559844.11945
     -2268.872       -1767.934  
 122746385.794    95646544.2274   23357859.061 6  23357858.67242  23357864.52742
     -3731.375       -2907.583  
 107052128.773    83417257.1854   20371339.781 8  20371339.09546  20371343.04046
       434.875         338.872  
 132929500.766   103581446.0014   25295644.009 6  25295643.45442  25295652.40442
      3454.122        2691.606  
 120373380.157    93797461.0394   22906292.857 7  22906292.97143  22906297.23243
     -2343.606       -1826.171  
 129156814.520   100641682.8884   24577726.017 6  24577724.29041  24577731.54541
      1256.227         978.875  
 01 12 19 14 52 46.0000000  0  8G10G25G30G 5G 6G17G24G 1            
 130454822.904   101653135.0024   24824731.609 5  24824728.56241  24824733.48241
      2631.941        2050.805  
 113062902.924    88100977.8434   21515153.781 8  21515153.21745  21515157.38945
       459.092         357.738  
 108044962.423    84190896.6184   20560272.254 8  20560272.21045  20560275.92445
     -2269.198       -1768.202  
 122750117.410    95649451.9724   23358568.611 6  23358568.90642  23358574.46342
     -3731.838       -2907.912  
 107051694.077    83416918.4634   20371256.906 8  20371256.48445  20371260.40345
       434.424         338.507  
 132926046.723   103578754.5084   25294986.358 6  25294985.62142  25294994.91442
      3453.829        2691.375  
 120375723.856    93799287.3044   22906738.993 7  22906738.75743  22906743.21643
     -2343.854       -1826.366  
 129155558.583   100640704.2344   24577487.806 6  24577485.76941  24577492.20441
      1255.825         978.633  
 01 12 19 14 52 47.0000000  0  8G10G25G30G 5G 6G17G24G 1            
 130452191.063   101651084.2134   24824231.834 5  24824228.71841  24824233.68341
      2630.954        2049.990  
 113062444.201    88100620.4034   21515066.392 8  21515065.91245  21515070.09345
       458.047         356.916  
 108047232.042    84192665.1554   20560704.176 8  20560704.24645  20560707.89045
     -2270.202       -1768.988  
 122753849.292    95652359.9394   23359279.373 6  23359279.39342  23359284.78042
     -3732.398       -2908.351  
 107051260.003    83416580.2234   20371174.123 8  20371173.90146  20371177.82746
       433.528         337.833  
 132922592.756   103576063.1034   25294328.963 6  25294327.62342  25294338.55242
      3453.532        2691.035  
 120378068.209    93801114.0704   22907185.123 7  22907184.58343  22907189.48143
     -2345.001       -1827.234  
 129154303.304   100639726.0984   24577249.044 6  24577246.78941  24577253.49141
      1254.824         977.832  
 01 12 19 14 52 48.0000000  0  8G10G25G30G 5G 6G17G24G 1            
 130449559.547   101649033.6904   24823728.558 5  24823729.87341  24823730.94641
      2631.228        2050.265  
 113061986.164    88100263.4964   21514979.397 8  21514978.79045  21514983.01245
       457.827         356.764  
 108049502.182    84194434.0944   20561136.324 8  20561136.21545  20561139.82845
     -2270.365       -1769.099  
 122757581.410    95655268.0864   23359990.587 6  23359989.74642  23359995.02942
     -3732.256       -2908.235  
 107050826.491    83416242.4234   20371091.797 8  20371091.49445  20371095.27746
       433.158         337.529  
 132919138.744   103573371.6404   25293671.990 6  25293670.80342  25293680.72542
      3454.048        2691.590  
 120380413.124    93802941.2764   22907631.050 7  22907630.42643  22907635.46443
     -2345.153       -1827.389  
 129153048.684   100638748.4674   24577009.934 6  24577008.96141  24577014.53441
      1254.383         977.426  
 01 12 19 14 52 49.0000000  0  8G10G25G30G 5G 6G17G24G 1            
 130446928.212   101646983.2854   24823225.338 5  24823230.28741  24823227.68841
      2631.852        2050.887  
 113061528.663    88099907.0014   21514892.197 8  21514891.66145  21514895.90345
       457.391         356.415  
 108051772.726    84196203.3524   20561568.338 7  20561568.23045  20561571.97745
     -2270.602       -1769.287  
 122761313.605    95658176.2854   23360701.718 6  23360700.08242  23360705.21142
     -3732.143       -2908.150  
 107050393.420    83415904.9674   20371009.570 8  20371009.22446  20371012.79846
       433.010         337.418  
 132915684.734   103570680.2094   25293015.155 6  25293013.71842  25293023.58842
      3454.177        2691.571  
 120382758.482    93804768.8304   22908077.327 7  22908076.67143  22908081.44743
     -2345.478       -1827.621  
 129151794.494   100637771.1694   24576771.423 6  24576770.62941  24576775.52541
      1254.190         977.323  
 01 12 19 14 52 50.0000000  0  8G10G25G30G 5G 6G17G24G 1            
 130444297.257   101644933.1804   24822726.277 5  24822729.26841  24822726.20841
      2630.781        2049.915  
 113061071.916    88099551.0954   21514805.449 8  21514804.73245  21514809.00145
       456.476         355.693  
 108054043.857    84197973.0624   20562000.307 8  20562000.38045  20562004.22545
     -2271.368       -1769.917  
 122765046.100    95661084.7204   23361412.068 6  23361410.50242  23361415.04942
     -3732.438       -2908.376  
 107049960.973    83415568.0004   20370927.245 8  20370926.90945  20370930.50745
       432.211         336.775  
 132912230.810   103567988.8704   25292358.239 6  25292357.67041  25292366.16642
      3453.768        2691.131  
 120385104.510    93806596.9054   22908524.005 7  22908522.95043  22908527.91743
     -2346.225       -1828.254  
 129150541.042   100636794.4434   24576532.793 6  24576532.01641  24576537.05241
      1252.976         976.336  
 01 12 19 14 52 51.0000000  0  8G10G25G30G 5G 6G17G24G 1            
 130441666.593   101642883.3064   24822227.042 5  24822227.48541  24822227.70141
      2630.517        2049.722  
 113060615.716    88099195.6144   21514718.489 8  21514718.01245  21514722.06645
       455.857         355.216  
 108056315.393    84199743.0914   20562432.908 8  20562432.77145  20562436.38745
     -2271.775       -1770.220  
 122768778.723    95663993.2664   23362122.524 7  23362121.09842  23362126.06442
     -3732.551       -2908.507  
 107049529.010    83415231.4064   20370845.199 8  20370844.68446  20370848.18746
       431.685         336.365  
 132908776.778   103565297.3954   25291700.356 6  25291700.11741  25291707.98442
      3454.074        2691.528  
 120387450.995    93808425.3354   22908970.556 7  22908969.47743  22908974.51543
     -2346.805       -1828.686  
 129149288.060   100635818.1064   24576294.675 6  24576293.41641  24576298.61541
      1252.570         975.985  
 01 12 19 14 52 52.0000000  0  9G10G25G30G 5G 6G29G17G24G 1         
 130439036.170   101640833.6484   24821726.331 5  24821725.09641  24821728.88841
      2630.340        2049.555  
 113060160.140    88098840.6244   21514631.842 7  21514631.26045  21514635.26945
       455.403         354.856  
 108058587.410    84201513.4944   20562865.579 8  20562865.20645  20562868.71745
     -2272.064       -1770.439  
 122772511.502    95666901.9134   23362832.227 7  23362831.90642  23362836.96142
     -3732.604       -2908.520  
 107049097.538    83414895.1934   20370762.964 8  20370762.47046  20370766.10846
       431.470         336.218  
 127038690.164                    24174653.876 1                                
     -3095.780                  
 132905322.777   103562605.9834   25291043.145 6  25291042.14341  25291050.76542
      3454.371        2691.682  
 120389797.996    93810254.1604   22909417.242 7  22909416.54643  22909421.20743
     -2346.929       -1828.786  
 129148035.637   100634842.1874   24576056.382 6  24576055.44241  24576060.10841
      1252.524         976.006  
 01 12 19 14 52 53.0000000  0  9G10G25G30G 5G 6G29G17G24G 1         
 130436406.219   101638784.3484   24821225.676 5  24821225.06341  24821225.58241
      2630.034        2049.357  
 113059705.394    88098486.2764   21514545.132 8  21514544.73345  21514548.70545
       454.380         354.054  
 108060860.101    84203284.4274   20563298.196 8  20563297.84345  20563301.36945
     -2273.014       -1771.197  
 122776244.679    95669810.8924   23363543.437 7  23363542.47342  23363547.75342
     -3733.299       -2909.112  
 107048666.805    83414559.5614   20370680.666 8  20370680.49246  20370684.10446
       430.504         335.432  
 127041786.736                    24175244.166 1                                
     -3096.820                  
 132901868.995   103559914.7034   25290385.887 6  25290386.08641  25290394.48242
      3454.132        2691.589  
 120392145.763    93812083.6034   22909863.767 7  22909863.21143  22909867.84243
     -2348.133       -1829.727  
 129146784.012   100633866.9094   24575818.406 6  24575817.25241  24575822.08941
      1251.303         974.979  
 01 12 19 14 52 54.0000000  0  9G10G25G30G 5G 6G29G17G24G 1         
 130433776.564   101636735.2894   24820724.975 5  24820723.34041  24820725.48141
      2629.137        2048.738  
 113059251.288    88098132.4324   21514458.949 8  21514458.40545  21514462.28145
       453.427         353.315  
 108063133.267    84205055.7284   20563730.875 8  20563730.43445  20563733.94545
     -2273.715       -1771.734  
 122779978.035    95672719.9954   23364253.896 6  23364252.85642  23364258.19842
     -3733.652       -2909.338  
 107048236.597    83414224.3354   20370598.611 8  20370598.54945  20370602.27645
       429.685         334.812  
 127044883.609                    24175834.074 1                                
     -3096.891                  
 132898415.167   103557223.4144   25289728.011 6  25289728.45141  25289737.11842
      3453.616        2691.129  
 120394494.053    93813913.4474   22910310.559 7  22910310.06143  22910314.35243
     -2348.804       -1830.268  
 129145532.972   100632892.0664   24575580.475 6  24575579.04441  24575583.98241
      1250.442         974.411  
 01 12 19 14 52 55.0000000  0  9G10G25G30G 5G 6G29G17G24G 1         
 130431147.104   101634686.3774   24820225.010 5  24820222.97541  24820225.65441
      2629.117        2048.626  
 113058797.699    88097778.9854   21514372.515 8  21514371.98945  21514376.18145
       453.083         353.056  
 108065406.790    84206827.3034   20564163.144 8  20564163.11645  20564166.49745
     -2273.964       -1771.921  
 122783711.461    95675629.1524   23364963.741 6  23364962.91042  23364968.34642
     -3733.642       -2909.326  
 107047806.801    83413889.4294   20370517.108 8  20370516.78646  20370520.58046
       429.388         334.587  
 127047980.659                    24176421.957 1                                
     -3097.529                  
 132894961.276   103554532.0764   25289071.570 6  25289071.10141  25289080.59441
      3453.873        2691.340  
 120396842.791    93815743.6324   22910757.302 7  22910756.95943  22910761.61343
     -2349.217       -1830.574  
 129144282.368   100631917.5724   24575342.329 6  24575340.76641  24575345.53541
      1250.178         974.160  
 01 12 19 14 52 56.0000000  0  9G10G25G30G 5G 6G29G17G24G 1         
 130428517.986   101632637.7064   24819725.390 5  24819722.24141  24819725.51841
      2628.779        2048.471  
 113058344.785    88097426.0654   21514286.449 8  21514285.76845  21514290.14745
       452.731         352.771  
 108067680.841    84208599.2904   20564595.441 8  20564595.61045  20564599.18145
     -2274.131       -1772.054  
 122787445.137    95678538.5064   23365673.662 6  23365673.45642  23365679.01942
     -3733.682       -2909.365  
 107047377.584    83413554.9794   20370435.447 8  20370435.10645  20370438.92745
       429.093         334.349  
 127051078.061                    24177011.569 4                                
     -3096.798                  
 132891507.397   103551840.7254   25288414.309 6  25288413.70141  25288422.77941
      3454.010        2691.432  
 120399192.086    93817574.2464   22911204.364 7  22911204.12443  22911208.50343
     -2349.457       -1830.728  
 129143032.386   100630943.5594   24575104.224 6  24575102.79341  24575106.92541
      1250.054         974.067  
 01 12 19 14 52 57.0000000  0  9G10G25G30G 5G 6G29G17G24G 1         
 130425889.192   101630589.3434   24819225.403 5  24819222.23741  24819227.73941
      2628.521        2048.141  
 113057892.556    88097073.6804   21514200.332 8  21514199.63745  21514204.07845
       452.118         352.296  
 108069955.434    84210371.6994   20565028.390 8  20565028.48745  20565032.02246
     -2274.659       -1772.454  
 122791179.029    95681448.0364   23366383.407 6  23366383.30142  23366389.76242
     -3733.870       -2909.531  
 107046948.944    83413220.9764   20370353.705 8  20370353.70946  20370357.48445
       428.475         333.865  
 127054175.880                    24177603.308 4                                
     -3097.719                  
 132888053.596   103549149.4224   25287757.198 6  25287755.18541  25287765.52841
      3453.835        2691.337  
 120401542.010    93819405.3694   22911651.826 7  22911651.58943  22911655.93443
     -2350.077       -1831.228  
 129141783.048   100629970.0334   24574865.727 6  24574865.83041  24574869.50741
      1249.216         973.452  
 01 12 19 14 52 58.0000000  0  9G10G25G30G 5G 6G29G17G24G 1         
 130423260.768   101628541.2254   24818724.535 5  24818721.19541  24818728.06141
      2628.003        2047.685  
 113057441.050    88096721.8604   21514114.429 7  21514113.74645  21514118.25645
       451.313         351.672  
 108072230.606    84212144.5594   20565461.065 8  20565461.29945  20565464.99545
     -2275.385       -1773.011  
 122794913.215    95684357.8004   23367093.995 6  23367093.53842  23367100.02042
     -3734.270       -2909.855  
 107046520.908    83412887.4434   20370272.582 8  20370272.14045  20370276.00046
       427.840         333.376  
 127057274.010                    24178192.073 4                                
     -3098.385                  
 132884599.865   103546458.1894   25287099.546 6  25287098.33041  25287109.17941
      3453.663        2691.195  
 120403892.532    93821236.9404   22912099.225 7  22912098.99143  22912103.25643
     -2350.744       -1831.717  
 129140534.376   100628997.0284   24574628.812 6  24574627.63541  24574631.51641
      1248.565         972.993  
 01 12 19 14 52 59.0000000  0  9G10G25G30G 5G 6G29G17G24G 1         
 130420632.734   101626493.4274   24818225.105 5  24818223.58341  24818228.49341
      2627.466        2047.328  
 113056990.249    88096370.5874   21514028.365 8  21514027.86245  21514032.32845
       450.522         351.056  
 108074506.322    84213917.8434   20565894.386 8  20565894.50145  20565897.92345
     -2275.866       -1773.399  
 122798647.651    95687267.7464   23367804.974 6  23367804.00442  23367810.37442
     -3734.615       -2910.094  
 107046093.479    83412554.3824   20370191.278 8  20370190.88446  20370194.53046
       427.143         332.829  
 127060372.511                    24178784.767 4                                
     -3099.230                  
 132881146.182   103543767.0054   25286441.877 6  25286440.54641  25286451.67341
      3453.583        2691.119  
 120406243.651    93823068.9704   22912547.143 7  22912546.28843  22912550.75143
     -2351.390       -1832.294  
 129139286.342   100628024.5544   24574390.716 6  24574389.52441  24574394.06741
      1247.732         972.210  
 01 12 19 14 53  0.0000000  0  9G10G25G30G 5G 6G29G17G24G 1         
 130418004.936   101624445.7694   24817724.119 5  24817725.21041  24817727.73841
      2627.956        2047.822  
 113056540.033    88096019.7724   21513942.804 7  21513942.19845  21513946.47345
       450.060         350.687  
 108076782.504    84215691.4944   20566327.533 8  20566327.55245  20566330.90245
     -2276.300       -1773.741  
 122802382.227    95690177.7984   23368514.913 6  23368514.69242  23368521.26242
     -3734.543       -2910.014  
 107045666.536    83412221.7014   20370110.271 8  20370109.55246  20370113.29046
       426.861         332.613  
 127063471.307                    24179372.695 4                                
     -3098.612                  
 132877692.530   103541075.8514   25285785.342 6  25285783.59041  25285795.01741
      3453.575        2691.047  
 120408595.313    93824901.4414   22912994.770 7  22912993.78743  22912998.66443
     -2351.706       -1832.506  
 129138038.864   100627052.5084   24574153.506 6  24574152.81241  24574156.48141
      1247.441         972.023  
 01 12 19 14 53  1.0000000  0  9G10G25G30G 5G 6G29G17G24G 1         
 130415377.239   101622398.1384   24817221.357 5  24817226.46741  24817227.31841
      2627.850        2047.775  
 113056090.290    88095669.3264   21513857.356 8  21513856.54045  21513861.04345
       449.398         350.181  
 108079058.991    84217465.3824   20566760.630 8  20566760.80645  20566764.14745
     -2276.764       -1774.101  
 122806116.827    95693087.8774   23369226.424 6  23369225.88642  23369231.74042
     -3734.744       -2910.181  
 107045239.953    83411889.2994   20370028.939 8  20370028.38846  20370032.10746
       426.341         332.214  
 127066570.194                    24179959.872 4                                
     -3098.328                  
 132874238.621   103538384.4774   25285128.214 6  25285126.64941  25285137.50041
      3453.826        2691.358  
 120410947.303    93826734.1644   22913442.162 7  22913440.93543  22913446.07843
     -2352.327       -1832.986  
 129136791.778   100626080.7514   24573916.147 6  24573915.15341  24573919.54941
      1246.877         971.591  
 01 12 19 14 53  2.0000000  0  9G10G25G30G 5G 6G29G17G24G 1         
 130412749.802   101620350.7774   24816720.179 4  24816724.83841  24816727.16641
      2627.523        2047.368  
 113055641.138    88095319.3434   21513771.641 7  21513771.03445  21513775.45245
       449.129         349.949  
 108081335.904    84219239.6024   20567193.722 8  20567194.11545  20567197.53646
     -2276.955       -1774.278  
 122809851.588    95695998.0784   23369936.430 6  23369936.83342  23369942.20842
     -3734.501       -2910.022  
 107044813.860    83411557.2834   20369947.712 8  20369947.31446  20369951.01046
       426.030         331.934  
 127069669.432                    24180550.177 4                                
     -3099.227                  
 132870784.711   103535693.1094   25284471.197 6  25284469.90341  25284480.52841
      3454.292        2691.684  
 120413299.815    93828567.2844   22913889.274 6  22913888.69443  22913893.10043
     -2352.678       -1833.253  
 129135545.235   100625109.4104   24573679.048 6  24573678.15541  24573682.70641
      1246.448         971.212  
 01 12 19 14 53  3.0000000  0  9G10G25G30G 5G 6G29G17G24G 1         
 130410122.594   101618303.6364   24816221.409 4  24816224.04441  24816228.46141
      2627.320        2047.295  
 113055192.550    88094969.7924   21513686.063 8  21513685.69845  21513689.89945
       448.329         349.348  
 108083613.235    84221014.1464   20567627.489 8  20567627.51345  20567630.90245
     -2277.506       -1774.670  
 122813586.440    95698908.3524   23370647.718 6  23370647.72242  23370652.71242
     -3734.896       -2910.317  
 107044388.223    83411225.6214   20369866.760 8  20369866.30346  20369869.99646
       425.308         331.407  
 127072768.851                    24181139.714 4                                
     -3099.522                  
 132867330.686   103533001.6594   25283813.323 6  25283812.27841  25283822.91041
      3454.300        2691.777  
 120415652.779    93830400.7684   22914337.161 7  22914336.35543  22914340.64443
     -2353.368       -1833.781  
 129134299.211   100624138.4704   24573441.900 6  24573440.40841  24573446.01041
      1245.769         970.781  
 01 12 19 14 53  4.0000000  0  9G10G25G30G 5G 6G29G17G24G 1         
 130407495.581   101616256.5974   24815721.151 4  24815723.81941  24815728.83941
      2626.979        2046.959  
 113054744.552    88094620.7034   21513600.871 8  21513600.58845  21513604.74445
       447.537         348.730  
 108085891.001    84222789.0354   20568061.306 8  20568061.07545  20568064.29945
     -2278.095       -1775.141  
 122817321.473    95701818.7624   23371358.764 6  23371358.11442  23371362.97442
     -3735.202       -2910.548  
 107043963.067    83410894.3324   20369785.675 8  20369785.44546  20369789.15745
       424.869         331.075  
 127075868.524                    24181728.506 4                                
     -3100.312                  
 132863876.697   103530310.2324   25283156.539 6  25283155.75041  25283166.26741
      3454.000        2691.438  
 120418006.256    93832234.6514   22914785.090 6  22914784.48743  22914788.78243
     -2353.730       -1834.078  
 129133053.707   100623167.9634   24573204.830 6  24573203.63341  24573209.89241
      1245.212         970.263  
 01 12 19 14 53  5.0000000  0  9G10G25G30G 5G 6G29G17G24G 1         
 130404869.305   101614210.1834   24815223.167 4  24815224.35941  24815228.26741
      2626.361        2046.466  
 113054297.520    88094272.3694   21513515.910 8  21513515.52445  21513519.89445
       446.907         348.244  
 108088169.593    84224564.5634   20568494.646 8  20568494.62845  20568497.97545
     -2278.647       -1775.569  
 122821056.989    95704729.5414   23372070.092 7  23372068.49942  23372073.55842
     -3735.418       -2910.715  
 107043538.775    83410563.7184   20369705.223 8  20369704.77146  20369708.44046
       424.254         330.595  
 127078968.824                    24182319.820 4                                
     -3100.567                  
 132860423.040   103527619.0844   25282498.532 5  25282498.02841  25282509.04141
      3453.617        2691.073  
 120420360.614    93834069.2274   22915233.521 7  22915232.40543  22915236.75343
     -2354.405       -1834.600  
 129131809.166   100622198.1924   24572968.656 6  24572967.16041  24572972.54241
      1244.696         969.908  
 01 12 19 14 53  6.0000000  0  9G10G25G30G 5G 6G29G17G24G 1         
 130402243.520   101612164.1084   24814723.517 4  24814724.56241  24814727.75141
      2625.973        2046.117  
 113053851.355    88093924.7084   21513431.236 8  21513430.55845  21513434.99945
       446.139         347.642  
 108090448.915    84226340.6544   20568928.414 8  20568928.60845  20568931.70545
     -2279.295       -1776.070  
 122824792.932    95707640.6694   23372780.438 6  23372779.35742  23372785.18242
     -3735.691       -2910.913  
 107043115.260    83410233.7084   20369624.463 8  20369624.28946  20369627.74846
       423.622         330.094  
 127082069.693                    24182910.347 4                                
     -3100.616                  
 132856969.576   103524928.0684   25281841.087 6  25281839.82041  25281850.95541
      3453.803        2691.282  
 120422715.753    93835904.3994   22915681.857 6  22915680.31743  22915684.91443
     -2355.117       -1835.151  
 129130565.378   100621229.0114   24572732.154 6  24572730.02241  24572735.28741
      1243.860         969.247  
 01 12 19 14 53  7.0000000  0  9G10G25G30G 5G 6G29G17G24G 1         
 130399617.659   101610118.0274   24814223.485 4  24814225.00141  24814228.03441
      2625.189        2045.544  
 113053405.483    88093577.2764   21513346.584 8  21513345.74545  21513350.22145
       445.275         346.960  
 108092728.366    84228116.8484   20569362.378 8  20569362.51345  20569365.56245
     -2279.886       -1776.544  
 122828528.737    95710551.6934   23373491.392 6  23373490.47242  23373495.99342
     -3736.298       -2911.406  
 107042691.913    83409903.8274   20369543.976 8  20369543.78346  20369547.22746
       422.809         329.450  
 127085170.543                    24183501.034 4                                
     -3101.410                  
 132853515.784   103522236.7994   25281184.100 5  25281181.77041  25281194.71741
      3453.334        2690.900  
 120425071.067    93837739.7144   22916129.883 7  22916128.62543  22916133.04043
     -2355.943       -1835.807  
 129129321.850   100620260.0454   24572495.435 6  24572493.95541  24572499.05041
      1242.991         968.534  
 01 12 19 14 53  8.0000000  0  9G10G25G30G 5G 6G29G17G24G 1         
 130396992.427   101608072.3794   24813724.657 4  24813726.06541  24813727.36041
      2624.862        2045.352  
 113052960.583    88093230.6044   21513261.844 8  21513261.22645  21513265.58045
       444.672         346.487  
 108095008.631    84229893.6814   20569796.559 8  20569796.40545  20569799.34445
     -2280.399       -1776.913  
 122832265.044    95713463.1044   23374202.490 6  23374201.91842  23374206.83342
     -3736.308       -2911.361  
 107042269.441    83409574.6284   20369463.494 8  20369463.34046  20369466.88446
       422.246         329.028  
 127088271.966                    24184089.891 4                                
     -3101.466                  
 132850062.315   103519545.7764   25280526.665 6  25280525.39341  25280536.60641
      3453.607        2691.158  
 120427427.266    93839575.7054   22916578.572 6  22916577.25343  22916581.66543
     -2356.364       -1836.140  
 129128079.228   100619291.7504   24572258.388 6  24572257.82441  24572263.59041
      1242.407         968.144  
 01 12 19 14 53  9.0000000  0  9G10G25G30G 5G 6G29G17G24G 1         
 130394367.283   101606026.8174   24813223.479 4  24813225.89641  24813226.91341
      2625.089        2045.564  
 113052516.077    88092884.2354   21513177.446 8  21513176.66445  21513180.89245
       444.108         346.055  
 108097289.128    84231670.6934   20570230.270 8  20570230.20245  20570233.17145
     -2280.839       -1777.292  
 122836001.283    95716374.4574   23374914.035 6  23374912.58642  23374918.46242
     -3736.253       -2911.384  
 107041847.254    83409245.6504   20369383.235 8  20369382.85846  20369386.64245
       421.846         328.705  
 127091373.485                    24184680.766 4                                
     -3101.709                  
 132846608.603   103516854.5874   25279870.403 5  25279868.83141  25279878.78841
      3453.632        2691.207  
 120429783.769    93841411.9384   22917026.733 7  22917025.65243  22917029.91143
     -2356.781       -1836.454  
 129126836.936   100618323.7294   24572022.588 6  24572020.74841  24572027.52741
      1242.081         967.843  
 01 12 19 14 53 10.0000000  0  9G10G25G30G 5G 6G29G17G24G 1         
 130391742.523   101603981.5374   24812724.806 4  24812726.38541  24812726.39041
      2624.232        2044.751  
 113052072.322    88092538.4604   21513092.637 8  21513092.21845  21513096.46145
       443.541         345.613  
 108099570.233    84233448.1814   20570663.992 8  20570664.28545  20570667.25445
     -2281.224       -1777.572  
 122839737.854    95719286.0644   23375625.068 6  23375623.84042  23375629.31642
     -3736.530       -2911.580  
 107041425.705    83408917.1734   20369303.343 8  20369302.61145  20369306.49346
       421.389         328.356  
 127094475.432                    24185271.580 4                                
     -3102.160                  
 132843155.045   103514163.5094   25279213.796 5  25279211.28441  25279221.37941
      3453.911        2691.367  
 120432140.936    93843248.6954   22917475.432 7  22917474.42643  22917478.80043
     -2357.407       -1836.943  
 129125595.370   100617356.2654   24571786.094 6  24571785.16441  24571790.88141
      1241.464         967.406  
 01 12 19 14 53 11.0000000  0  9G10G25G30G 5G 6G29G17G24G 1         
 130389118.074   101601936.5334   24812224.875 4  24812226.48941  24812227.49241
      2624.663        2045.258  
 113051629.252    88092193.2034   21513008.282 8  21513007.90045  21513012.08445
       442.699         344.974  
 108101851.875    84235226.0814   20571098.522 8  20571098.38845  20571101.44845
     -2281.943       -1778.135  
 122843474.666    95722197.8554   23376335.787 6  23376335.01542  23376340.07642
     -3737.046       -2911.958  
 107041004.737    83408589.1464   20369223.044 8  20369222.49046  20369226.25046
       420.521         327.676  
 127097577.789                    24185864.346 4                                
     -3102.693                  
 132839701.527   103511472.4564   25278554.943 6  25278554.60741  25278563.74241
      3453.669        2691.163  
 120434498.687    93845085.9064   22917923.781 7  22917923.20043  22917927.53043
     -2358.005       -1837.381  
 129124354.412   100616389.2844   24571549.884 6  24571549.06641  24571554.14341
      1240.679         966.704  
 01 12 19 14 53 12.0000000  0  9G10G25G30G 5G 6G29G17G24G 1         
 130386493.859   101599891.7204   24811726.721 5  24811726.42041  24811729.31741
      2624.378        2044.983  
 113051186.711    88091848.3704   21512923.922 8  21512923.72645  21512927.81445
       442.427         344.746  
 108104133.889    84237004.2784   20571532.843 8  20571532.51545  20571535.67445
     -2282.053       -1778.223  
 122847211.540    95725109.7034   23377046.859 6  23377045.92242  23377051.29942
     -3736.718       -2911.750  
 107040584.189    83408261.4494   20369143.069 8  20369142.46745  20369146.23445
       420.400         327.577  
 127100680.250                    24186454.430 4                                
     -3102.338                  
 132836247.928   103508781.3244   25277897.776 5  25277897.67841  25277907.29241
      3453.756        2691.184  
 120436856.871    93846923.4554   22918372.065 7  22918371.66143  22918376.38843
     -2358.255       -1837.585  
 129123113.932   100615422.6844   24571313.770 6  24571312.15241  24571318.91741
      1240.065         966.277  
 01 12 19 14 53 13.0000000  0  9G10G25G30G 5G 6G29G17G24G 1         
 130383869.779   101597846.9894   24811228.434 5  24811226.10641  24811231.16641
      2623.925        2044.543  
 113050744.667    88091503.9214   21512839.620 8  21512839.54445  21512843.88345
       441.655         344.154  
 108106416.259    84238782.7494   20571967.062 8  20571966.73345  20571969.93146
     -2282.666       -1778.689  
 122850948.469    95728021.6144   23377757.802 6  23377757.27042  23377763.04942
     -3737.308       -2912.171  
 107040164.026    83407934.0554   20369062.999 8  20369062.55646  20369066.28246
       419.807         327.135  
 127103782.905                    24187043.784 4                                
     -3102.996                  
 132832794.182   103506090.0864   25277241.023 6  25277239.82441  25277250.60241
      3453.748        2691.268  
 120439215.465    93848761.3164   22918821.075 7  22918819.86243  22918825.39643
     -2358.880       -1838.066  
 129121873.894   100614456.4284   24571077.206 6  24571075.82541  24571080.79341
      1239.673         965.962  
 01 12 19 14 53 14.0000000  0  9G10G25G30G 5G 6G29G17G24G 1         
 130381245.843   101595802.3834   24810727.670 5  24810726.92041  24810732.09741
      2624.158        2044.704  
 113050303.166    88091159.8974   21512755.711 8  21512755.46345  21512759.86845
       441.163         343.763  
 108108698.999    84240561.5074   20572400.878 8  20572401.14645  20572404.30945
     -2282.944       -1778.917  
 122854685.474    95730933.5644   23378468.723 6  23378468.17942  23378474.37342
     -3737.194       -2912.094  
 107039744.311    83407607.0064   20368983.214 8  20368982.62946  20368986.34146
       419.471         326.862  
 127106885.706                    24187634.340 4                                
     -3102.785                  
 132829340.305   103503398.7484   25276584.026 5  25276582.94641  25276592.85641
      3454.320        2691.626  
 120441574.489    93850599.5164   22919270.517 7  22919269.19943  22919274.49843
     -2359.306       -1838.405  
 129120634.336   100613490.5384   24570840.588 6  24570841.04841  24570845.62941
      1239.448         965.701  
 01 12 19 14 53 15.0000000  0  9G10G25G30G 5G 6G29G17G24G 1         
 130378622.346   101593758.1044   24810226.644 5  24810228.02741  24810233.25341
      2622.933        2043.833  
 113049862.348    88090816.4034   21512671.968 8  21512671.59645  21512675.77245
       440.328         343.120  
 108110982.281    84242340.6864   20572835.229 8  20572835.55945  20572838.87145
     -2283.620       -1779.445  
 122858422.729    95733845.7074   23379180.245 6  23379180.25142  23379185.96142
     -3737.655       -2912.501  
 107039325.167    83407280.4004   20368903.443 8  20368902.77546  20368906.56746
       418.580         326.162  
 127109988.916                    24188221.950 4                                
     -3103.457                  
 132825886.551   103500707.5234   25275926.858 6  25275925.54441  25275935.54441
      3453.614        2691.056  
 120443934.101    93852438.1754   22919719.774 7  22919718.49043  22919723.08243
     -2360.078       -1839.036  
 129119395.387   100612525.1114   24570605.306 6  24570605.16941  24570609.97041
      1238.617         965.125  
 01 12 19 14 53 16.0000000  0  9G10G25G30G 5G 6G29G17G24G 1         
 130375999.358   101591714.2244   24809728.054 5  24809728.05741  24809733.26941
      2622.638        2043.625  
 113049422.390    88090473.5794   21512588.564 8  21512587.76345  21512592.05845
       440.005         342.864  
 108113266.282    84244120.4234   20573269.982 8  20573270.11345  20573273.61245
     -2283.931       -1779.684  
 122862160.391    95736758.1674   23379891.291 6  23379891.47542  23379896.53242
     -3737.614       -2912.403  
 107038906.786    83406954.3904   20368824.091 8  20368823.25946  20368826.94946
       418.314         325.952  
 127113092.635                    24188809.951 4                                
     -3103.132                  
 132822432.947   103498016.3834   25275270.919 6  25275268.00341  25275278.53441
      3454.084        2691.545  
 120446294.486    93854277.4424   22920168.989 7  22920167.66043  22920172.10743
     -2360.298       -1839.229  
 129118157.276   100611560.3664   24570370.428 6  24570370.22041  24570374.40041
      1238.145         964.783  
 01 12 19 14 53 17.0000000  0  9G10G25G30G 5G 6G29G17G24G 1         
 130373376.691   101589670.5864   24809228.863 5  24809228.69841  24809234.95841
      2622.872        2043.918  
 113048983.162    88090131.3294   21512504.781 8  21512504.13145  21512508.37945
       438.934         342.020  
 108115550.850    84245900.6074   20573705.429 8  20573705.10845  20573708.52645
     -2284.840       -1780.408  
 122865898.335    95739670.8464   23380602.663 6  23380603.01242  23380607.61042
     -3738.124       -2912.844  
 107038489.018    83406628.8594   20368744.627 8  20368743.84746  20368747.41245
       417.444         325.283  
 127116196.812                    24189403.017 4                                
     -3103.970                  
 132818979.492   103495325.3844   25274612.309 5  25274610.73141  25274620.61441
      3453.883        2691.343  
 120448655.507    93856117.2104   22920618.170 7  22920616.99643  22920621.07243
     -2361.276       -1839.968  
 129116919.852   100610596.1424   24570134.917 6  24570133.97641  24570137.77741
      1237.078         963.964  
 01 12 19 14 53 18.0000000  0  9G10G25G30G 5G 6G29G17G24G 1         
 130370754.434   101587627.2684   24808730.295 4  24808729.71741  24808734.28741
      2621.913        2043.093  
 113048544.630    88089789.6154   21512421.129 8  21512420.75845  21512424.95445
       438.407         341.613  
 108117835.938    84247681.1994   20574139.911 8  20574139.82445  20574143.28846
     -2285.190       -1780.670  
 122869636.517    95742583.7024   23381314.351 6  23381313.91442  23381319.21742
     -3738.013       -2912.757  
 107038071.831    83406303.7784   20368665.057 8  20368664.54246  20368668.01446
       417.067         324.991  
 127119301.343                    24189993.440 4                                
     -3104.563                  
 132815526.069   103492634.3814   25273954.558 5  25273953.90741  25273963.48041
      3453.335        2690.959  
 120451017.141    93857957.4444   22921067.060 7  22921066.23043  22921070.45443
     -2361.831       -1840.395  
 129115682.993   100609632.3464   24569899.114 6  24569898.06941  24569902.59741
      1236.730         963.675  
 01 12 19 14 53 19.0000000  0  9G10G25G30G 5G 6G29G17G24G 1         
 130368132.545   101585584.2594   24808234.792 4  24808230.27541  24808237.31341
      2622.059        2043.185  
 113048106.862    88089448.5014   21512337.851 7  21512337.66345  21512341.67445
       437.420         340.844  
 108120121.658    84249462.2814   20574575.011 8  20574574.90945  20574578.15745
     -2285.972       -1781.278  
 122873375.029    95745496.8394   23382026.012 6  23382025.42342  23382030.57642
     -3738.530       -2913.127  
 107037655.323    83405979.2294   20368585.701 8  20368585.29146  20368588.78646
       416.285         324.370  
 127122406.250                    24190583.605 4                                
     -3104.705                  
 132812072.801   103489943.5434   25273297.472 5  25273297.34641  25273307.23641
      3453.531        2691.000  
 120453379.427    93859798.1814   22921516.404 7  22921515.66443  22921519.72943
     -2362.607       -1840.989  
 129114446.919   100608669.1814   24569663.571 6  24569663.39041  24569668.21341
      1235.937         963.052  
 01 12 19 14 53 20.0000000  0  9G10G25G30G 5G 6G29G17G24G 1         
 130365511.096   101583541.5664   24807734.879 5  24807729.82941  24807737.76541
      2621.556        2042.863  
 113047669.860    88089107.9804   21512254.694 8  21512254.47945  21512258.61545
       436.856         340.404  
 108122407.977    84251243.8324   20575009.941 8  20575010.04145  20575013.10645
     -2286.363       -1781.589  
 122877113.876    95748410.2224   23382738.454 7  23382736.89142  23382742.18742
     -3738.792       -2913.334  
 107037239.458    83405655.1804   20368506.417 8  20368506.13845  20368509.67745
       415.763         323.955  
 127125511.697                    24191177.301 4                                
     -3105.978                  
 132808619.679   103487252.7904   25272641.029 5  25272640.51341  25272649.77341
      3453.303        2690.846  
 120455742.377    93861639.4424   22921966.862 7  22921965.76043  22921969.24343
     -2363.048       -1841.334  
 129113211.550   100607706.5434   24569428.082 6  24569428.23241  24569433.16841
      1234.842         962.279  
 01 12 19 14 53 21.0000000  0  9G10G25G30G 5G 6G29G17G24G 1         
 130362889.871   101581499.0484   24807232.684 5  24807231.32541  24807241.30441
      2621.293        2042.582  
 113047233.337    88088767.8344   21512171.729 8  21512171.36845  21512175.44345
       436.332         339.994  
 108124694.637    84253025.6444   20575445.195 8  20575445.05745  20575448.25845
     -2286.779       -1781.904  
 122880852.704    95751323.5984   23383450.166 6  23383448.72242  23383453.87042
     -3738.838       -2913.377  
 107036823.973    83405331.4294   20368427.408 8  20368427.05946  20368430.67246
       415.235         323.566  
 127128617.167                    24191769.893 4                                
     -3105.412                  
 132805166.398   103484561.9214   25271983.993 5  25271982.97341  25271993.02941
      3453.291        2690.913  
 120458105.728    93863481.0154   22922416.841 7  22922415.29043  22922418.88443
     -2363.608       -1841.773  
 129111976.559   100606744.1904   24569192.789 6  24569193.94641  24569198.93841
      1234.778         962.196  
 01 12 19 14 53 22.0000000  0  9G10G25G30G 5G 6G29G17G24G 1         
 130360268.697   101579456.6024   24806734.987 5  24806732.67141  24806743.73241
      2621.212        2042.439  
 113046797.341    88088428.0924   21512088.952 8  21512088.43145  21512092.35445
       435.779         339.571  
 108126981.673    84254807.7444   20575880.340 8  20575880.30445  20575883.52545
     -2287.128       -1782.178  
 122884591.668    95754237.0764   23384160.466 6  23384160.24142  23384164.65942
     -3738.939       -2913.444  
 107036408.901    83405007.9984   20368348.742 8  20368348.17045  20368351.66146
       414.983         323.361  
 127131722.865                    24192359.902 4                                
     -3105.969                  
 132801713.008   103481870.9484   25271326.664 5  25271325.35041  25271335.42241
      3453.673        2691.235  
 120460469.511    93865322.9294   22922865.963 7  22922864.99143  22922868.92343
     -2363.947       -1842.054  
 129110742.071   100605782.2524   24568957.817 6  24568958.78741  24568962.82441
      1234.393         961.945  
 01 12 19 14 53 23.0000000  0  9G10G25G30G 5G 6G29G17G24G 1         
 130357647.883   101577414.4074   24806236.104 5  24806235.03741  24806244.32541
      2620.842        2042.160  
 113046361.944    88088088.8254   21512005.940 8  21512005.61845  21512009.60745
       435.360         339.232  
 108129269.157    84256590.2044   20576315.275 8  20576315.52545  20576318.85845
     -2287.508       -1782.466  
 122888330.749    95757150.6554   23384871.247 6  23384871.39042  23384875.67142
     -3739.039       -2913.571  
 107035994.341    83404684.9644   20368269.848 8  20368269.27446  20368272.84346
       414.521         323.004  
 127134828.825                    24192951.123 4                                
     -3105.598                  
 132798259.605   103479179.9854   25270669.696 5  25270668.15641  25270678.01441
      3453.849        2691.291  
 120462833.784    93867165.2264   22923315.825 7  22923314.81043  22923319.06343
     -2364.328       -1842.362  
 129109508.117   100604820.7354   24568723.561 6  24568723.95141  24568728.86741
      1233.759         961.414  
 01 12 19 14 53 24.0000000  0  9G10G25G30G 5G 6G29G17G24G 1         
 130355027.124   101575372.2674   24805736.498 4  24805736.86941  24805747.15341
      2620.833        2042.237  
 113045926.994    88087749.9064   21511923.262 8  21511922.80145  21511926.94445
       434.579         338.617  
 108131556.929    84258372.8864   20576750.593 8  20576750.82845  20576754.28645
     -2288.071       -1782.924  
 122892069.822    95760064.2194   23385582.835 6  23385582.70142  23385587.13842
     -3739.137       -2913.615  
 107035580.129    83404362.2014   20368190.647 8  20368190.44046  20368193.95546
       413.900         322.525  
 127137934.916                    24193541.258 4                                
     -3105.862                  
 132794806.066   103476488.9044   25270012.450 5  25270011.20941  25270020.89441
      3453.095        2690.782  
 120465198.434    93869007.8114   22923765.535 7  22923765.13443  22923769.08443
     -2364.938       -1842.796  
 129108274.566   100603859.5234   24568488.238 6  24568487.72041  24568493.77941
      1233.195         961.015  
 01 12 19 14 53 25.0000000  0  9G10G25G30G 5G 6G29G17G24G 1         
 130352406.942   101573330.6054   24805236.492 4  24805240.62241  24805248.81641
      2620.256        2041.697  
 113045492.844    88087411.6074   21511840.496 8  21511840.23345  21511844.14745
       433.855         338.052  
 108133845.367    84260156.0834   20577186.501 8  20577186.37145  20577189.91245
     -2288.673       -1783.379  
 122895809.263    95762978.0594   23386293.718 6  23386293.39042  23386298.92742
     -3739.382       -2913.815  
 107035166.575    83404039.9494   20368112.093 8  20368111.69946  20368115.20846
       413.324         322.087  
 127141041.467                    24194131.213 4                                
     -3106.887                  
 132791352.578   103473797.8844   25269355.909 5  25269354.38041  25269363.99341
      3453.612        2691.163  
 120467563.763    93870850.9254   22924215.154 6  22924215.14043  22924219.63443
     -2365.674       -1843.368  
 129107041.765   100602898.8964   24568254.666 6  24568253.22241  24568259.44341
      1232.527         960.435  
 01 12 19 14 53 26.0000000  0  9G10G25G30G 5G 6G29G17G24G 1         
 130349786.870   101571288.9754   24804736.571 4  24804742.09041  24804751.12441
      2620.112        2041.585  
 113045059.207    88087073.7064   21511758.145 8  21511757.81145  21511761.47545
       433.390         337.703  
 108136134.174    84261939.5704   20577622.624 8  20577622.02545  20577625.46545
     -2289.079       -1783.712  
 122899548.770    95765891.9594   23387005.960 6  23387005.02542  23387010.71242
     -3739.491       -2913.903  
 107034753.451    83403718.0374   20368033.424 8  20368033.08945  20368036.53146
       412.919         321.738  
 127144148.160                    24194722.608 4                                
     -3107.003                  
 132787898.997   103471106.7764   25268699.009 5  25268697.54041  25268707.27641
      3454.169        2691.579  
 120469929.524    93872694.3784   22924665.381 7  22924664.95043  22924669.76343
     -2365.945       -1843.604  
 129105809.402   100601938.6244   24568019.558 6  24568019.54141  24568025.88341
      1232.131         960.066  
 01 12 19 14 53 27.0000000  0  9G10G25G30G 5G 6G29G17G24G 1         
 130347166.918   101569247.4424   24804237.245 4  24804243.60541  24804251.56241
      2619.314        2041.010  
 113044626.081    88086736.2064   21511675.527 8  21511675.39445  21511678.93445
       432.737         337.199  
 108138423.306    84263723.3134   20578058.331 8  20578057.71745  20578061.02845
     -2289.454       -1784.004  
 122903288.337    95768805.9084   23387717.170 6  23387716.42842  23387722.87942
     -3739.776       -2914.122  
 107034340.728    83403396.4384   20367954.900 8  20367954.60545  20367958.02445
       412.431         321.366  
 127147255.078                    24195314.124 4                                
     -3106.984                  
 132784445.363   103468415.6494   25268041.104 5  25268040.86741  25268050.62541
      3453.712        2691.285  
 120472295.686    93874538.1284   22925115.889 7  22925115.07143  22925119.86243
     -2366.347       -1843.912  
 129104577.506   100600978.7164   24567784.734 6  24567784.95941  24567792.20841
      1231.727         959.840  
 01 12 19 14 53 28.0000000  0  9G10G25G30G 5G 6G29G17G24G 1         
 130344547.323   101567206.1934   24803738.947 4  24803743.10641  24803752.41941
      2619.110        2040.863  
 113044193.652    88086399.2544   21511593.032 8  21511592.93145  21511596.73645
       432.263         336.802  
 108140713.002    84265507.4944   20578493.805 8  20578493.57745  20578496.73845
     -2289.783       -1784.273  
 122907028.152    95771720.0444   23388429.773 6  23388428.31942  23388434.21742
     -3739.705       -2914.034  
 107033928.614    83403075.3144   20367876.392 8  20367876.18545  20367879.71946
       411.836         320.885  
 127150362.396                    24195906.715 4                                
     -3107.524                  
 132780991.731   103465724.4884   25267383.264 5  25267383.39341  25267393.76241
      3453.441        2690.918  
 120474662.470    93876382.3774   22925566.701 7  22925565.86843  22925569.96543
     -2366.895       -1844.327  
 129103346.282   100600019.3464   24567550.574 6  24567550.72741  24567557.89341
      1230.978         959.179  
 01 12 19 14 53 29.0000000  0  9G10G25G30G 5G 6G29G17G24G 1         
 130341927.949   101565165.1244   24803245.755 4  24803243.20341  24803253.01041
      2619.535        2041.184  
 113043761.769    88086062.7244   21511511.106 8  21511510.75145  21511514.74945
       431.662         336.344  
 108143003.100    84267291.9864   20578929.318 8  20578929.40646  20578932.52545
     -2290.209       -1784.598  
 122910768.075    95774634.2684   23389140.280 6  23389139.51042  23389146.24542
     -3739.828       -2914.159  
 107033516.927    83402754.5194   20367798.227 8  20367797.84345  20367801.40946
       411.493         320.626  
 127153469.889                    24196499.150 4                                
     -3107.740                  
 132777538.086   103463033.3474   25266726.447 5  25266726.01541  25266737.04541
      3453.681        2691.125  
 120477029.696    93878226.9814   22926017.044 7  22926016.29443  22926020.37943
     -2367.316       -1844.680  
 129102115.521   100599060.3194   24567316.685 6  24567316.36641  24567323.12841
      1230.485         958.779  
 01 12 19 14 53 30.0000000  0  9G10G25G30G 5G 6G29G17G24G 1         
 130339308.854   101563124.2684   24802748.519 4  24802746.33941  24802754.91041
      2618.683        2040.527  
 113043330.434    88085726.6204   21511428.934 8  21511428.74045  21511432.69445
       430.956         335.803  
 108145293.581    84269076.7724   20579364.951 8  20579365.34945  20579368.40745
     -2290.719       -1784.969  
 122914508.104    95777548.5734   23389852.282 6  23389851.28442  23389858.02342
     -3740.110       -2914.398  
 107033105.692    83402434.0744   20367719.764 8  20367719.51145  20367723.09845
       410.936         320.206  
 127156577.599                    24197090.702 4                                
     -3108.211                  
 132774084.340   103460342.1104   25266068.632 5  25266067.03541  25266079.19741
      3453.443        2690.956  
 120479397.390    93880071.9394   22926467.530 7  22926467.04943  22926470.83243
     -2367.873       -1845.111  
 129100885.265   100598101.6664   24567082.227 6  24567082.36441  24567089.31541
      1229.917         958.454  
 01 12 19 14 53 31.0000000  0  9G10G25G30G 5G 6G29G17G24G 1         
 130336689.979   101561083.5884   24802250.420 4  24802249.14441  24802256.32441
      2618.665        2040.431  
 113042899.701    88085390.9894   21511347.045 8  21511346.83745  21511350.67545
       430.362         335.333  
 108147584.501    84270861.9064   20579800.878 8  20579801.23945  20579804.20945
     -2291.140       -1785.322  
 122918248.235    95780462.9574   23390564.335 6  23390563.45042  23390569.86742
     -3740.024       -2914.319  
 107032694.936    83402114.0114   20367641.528 8  20367641.27445  20367644.82145
       410.504         319.853  
 127159685.529                    24197683.248 4                                
     -3108.056                  
 132770630.530   103457650.8264   25265411.043 5  25265410.41741  25265421.22441
      3453.668        2691.156  
 120481765.573    93881917.2894   22926917.958 7  22926917.52943  22926921.60143
     -2368.485       -1845.593  
 129099655.527   100597143.4244   24566849.406 6  24566848.36441  24566854.91941
      1229.491         958.073  
 01 12 19 14 53 32.0000000  0  9G10G25G30G 5G 6G29G17G24G 1         
 130334071.549   101559043.2624   24801751.254 4  24801750.12341  24801757.34941
      2618.250        2040.206  
 113042469.789    88085055.9924   21511265.494 7  21511264.99345  21511268.81245
       429.575         334.730  
 108149876.113    84272647.5794   20580236.982 8  20580237.12345  20580240.27345
     -2292.022       -1785.999  
 122921988.818    95783377.7004   23391277.160 6  23391275.55642  23391281.93242
     -3740.676       -2914.823  
 107032284.929    83401794.5264   20367563.838 8  20367563.21946  20367566.86946
       409.679         319.222  
 127162794.006                    24198274.722 4                                
     -3108.341                  
 132767176.965   103454959.7324   25264754.270 5  25264752.77641  25264764.93041
      3453.419        2690.978  
 120484134.509    93883763.2064   22927369.119 7  22927368.15043  22927372.85243
     -2369.171       -1846.099  
 129098426.632   100596185.8294   24566615.215 6  24566614.81441  24566620.75341
      1228.456         957.272  
 01 12 19 14 53 33.0000000  0  9G10G25G30G 5G 6G29G17G24G 1         
 130331453.439   101557003.1584   24801251.919 4  24801251.72141  24801255.85041
      2617.630        2039.734  
 113042040.488    88084721.4714   21511183.706 8  21511183.41145  21511187.51245
       428.829         334.168  
 108152168.150    84274433.5814   20580673.315 8  20580673.17945  20580676.37145
     -2292.517       -1786.368  
 122925729.532    95786292.5404   23391988.863 6  23391987.35142  23391993.61342
     -3741.019       -2915.035  
 107031875.392    83401475.4074   20367486.081 8  20367485.33246  20367489.00345
       409.049         318.744  
 127165902.811                    24198867.281 4                                
     -3108.978                  
 132763723.334   103452268.5954   25264097.947 5  25264095.72141  25264108.42641
      3453.429        2690.967  
 120486503.933    93885609.5084   22927820.182 7  22927819.25643  22927824.23843
     -2369.856       -1846.623  
 129097198.228   100595228.6124   24566380.436 5  24566380.95941  24566387.63541
      1227.950         956.848  
 01 12 19 14 53 34.0000000  0  9G10G25G30G 5G 6G29G17G24G 1         
 130328835.510   101554963.2354   24800752.117 4  24800753.18141  24800756.92341
      2617.640        2039.658  
 113041611.701    88084387.3534   21511102.198 8  21511101.84745  21511105.89545
       428.546         333.925  
 108154460.542    84276219.8624   20581109.695 8  20581109.51045  20581112.53345
     -2292.534       -1786.402  
 122929470.284    95789207.4044   23392700.317 6  23392699.43142  23392704.92742
     -3740.784       -2914.909  
 107031466.263    83401156.6104   20367408.083 8  20367407.52646  20367411.10546
       408.933         318.640  
 127169011.652                    24199457.137 4                                
     -3108.797                  
 132760269.629   103449577.4034   25263441.176 5  25263438.10641  25263451.75141
      3453.888        2691.461  
 120488873.779    93887456.1424   22928271.132 7  22928270.13643  22928274.87243
     -2370.043       -1846.811  
 129095970.303   100594271.7924   24566146.424 5  24566147.58841  24566152.97741
      1227.723         956.584  
 01 12 19 14 53 35.0000000  0  9G10G25G30G 5G 6G29G17G24G 1         
 130326217.856   101552923.5044   24800254.458 4  24800254.69841  24800257.73541
      2617.555        2039.656  
 113041183.546    88084053.7254   21511020.467 8  21511020.31145  21511024.40045
       427.940         333.439  
 108156753.434    84278006.5314   20581545.951 8  20581545.89445  20581548.67145
     -2293.129       -1786.833  
 122933211.242    95792122.4404   23393412.057 6  23393410.41442  23393416.62642
     -3741.025       -2915.108  
 107031057.679    83400838.2374   20367330.483 8  20367329.79746  20367333.34846
       408.304         318.150  
 127172120.922                    24200048.360 4                                
     -3109.850                  
 132756815.843   103446886.1384   25262783.438 5  25262781.57241  25262793.34741
      3453.927        2691.348  
 120491244.159    93889303.1934   22928722.094 7  22928721.19543  22928725.39243
     -2370.592       -1847.197  
 129094742.953   100593315.4294   24565913.499 5  24565913.09341  24565918.97441
      1226.812         955.940  
 01 12 19 14 53 36.0000000  0  9G10G25G30G 5G 6G29G17G24G 1         
 130323600.426   101550883.9674   24799760.163 4  24799756.72441  24799758.27141
      2617.148        2039.431  
 113040756.006    88083720.5824   21510939.280 8  21510938.82245  21510942.96045
       427.322         332.978  
 108159046.789    84279793.5614   20581982.444 8  20581982.31345  20581985.20045
     -2293.523       -1787.167  
 122936952.360    95795037.5954   23394124.099 6  23394122.96142  23394128.35742
     -3741.194       -2915.198  
 107030649.579    83400520.2384   20367252.503 8  20367252.17846  20367255.65145
       407.951         317.880  
 127175230.401                    24200639.411 4                                
     -3109.471                  
 132753362.087   103444194.8954   25262125.175 5  25262123.95641  25262135.41341
      3453.790        2691.281  
 120493615.061    93891150.6414   22929172.797 7  22929172.81843  22929176.47843
     -2371.094       -1847.600  
 129093516.175   100592359.5084   24565680.906 6  24565679.85941  24565685.52341
      1226.634         955.882  
 01 12 19 14 53 37.0000000  0  9G10G25G30G 5G 6G29G17G24G 1         
 130320983.147   101548844.5534   24799258.179 4  24799260.22441  24799259.23041
      2617.457        2039.545  
 113040328.932    88083387.7994   21510857.939 8  21510857.55445  21510861.70945
       426.629         332.430  
 108161340.444    84281580.8294   20582419.123 8  20582418.79845  20582421.65445
     -2294.087       -1787.611  
 122940693.495    95797952.7714   23394835.811 6  23394835.02542  23394840.33942
     -3741.387       -2915.368  
 107030241.865    83400202.5404   20367174.874 8  20367174.51845  20367178.15646
       407.315         317.392  
 127178340.000                    24201231.891 4                                
     -3110.642                  
 132749908.170   103441503.5324   25261468.409 5  25261467.04741  25261478.08141
      3453.937        2691.417  
 120495986.340    93892998.4034   22929625.201 7  22929624.30543  22929627.82843
     -2371.873       -1848.233  
 129092289.800   100591403.8824   24565447.243 6  24565446.25841  24565452.32741
      1225.907         955.223  
 01 12 19 14 53 38.0000000  0  9G10G25G30G 5G 6G29G17G24G 1         
 130318366.425   101546805.5554   24798762.596 5  24798760.96941  24798764.46841
      2615.909        2038.463  
 113039902.689    88083055.6594   21510777.021 7  21510776.41645  21510780.56745
       425.650         331.674  
 108163634.786    84283368.6244   20582855.694 8  20582855.48045  20582858.35645
     -2294.840       -1788.174  
 122944435.017    95800868.2364   23395547.964 6  23395546.68442  23395552.74942
     -3742.008       -2915.887  
 107029834.861    83399885.3944   20367097.168 8  20367097.04746  20367100.70946
       406.563         316.802  
 127181450.118                    24201823.980 4                                
     -3110.298                  
 132746454.465   103438812.3264   25260810.958 5  25260810.44741  25260819.80341
      3453.789        2691.269  
 120498358.326    93894846.7054   22930076.430 7  22930075.64843  22930079.05543
     -2372.530       -1848.746  
 129091064.204   100590448.8804   24565214.027 6  24565213.13141  24565218.52241
      1224.936         954.527  
 01 12 19 14 53 39.0000000  0  9G10G25G30G 5G 6G29G17G24G 1         
 130315750.054   101544766.8254   24798263.276 5  24798262.99841  24798267.92241
      2616.154        2038.541  
 113039477.176    88082724.0904   21510696.189 8  21510695.53745  21510699.60645
       425.124         331.278  
 108165929.717    84285156.8834   20583292.142 8  20583292.16045  20583295.05945
     -2295.339       -1788.577  
 122948176.802    95803783.9054   23396259.792 6  23396259.15942  23396264.86142
     -3742.054       -2915.850  
 107029428.489    83399568.7384   20367019.767 8  20367019.64346  20367023.33246
       405.993         316.387  
 127184560.618                    24202415.589 4                                
     -3110.110                  
 132743000.890   103436121.2174   25260153.918 5  25260153.41841  25260163.43941
      3453.062        2690.771  
 120500730.950    93896695.5114   22930527.903 7  22930526.39443  22930530.40443
     -2372.948       -1849.037  
 129089839.266   100589494.3784   24564980.697 6  24564979.98341  24564985.55141
      1224.574         954.229  
 01 12 19 14 53 40.0000000  0  9G10G25G30G 5G 6G29G17G24G 1         
 130313133.788   101542728.1804   24797762.449 5  24797761.89241  24797772.14041
      2616.490        2038.858  
 113039052.115    88082392.8754   21510614.979 7  21510614.71045  21510618.53845
       424.674         330.917  
 108168224.940    84286945.3684   20583728.817 8  20583728.92045  20583731.77345
     -2295.547       -1788.746  
 122951918.593    95806699.5864   23396972.105 6  23396971.45442  23396977.04842
     -3742.141       -2915.993  
 107029022.444    83399252.3434   20366942.521 8  20366942.39546  20366946.02146
       405.646         316.068  
 127187671.312                    24203007.757 4                                
     -3111.159                  
 132739547.066   103433429.9294   25259496.446 5  25259496.71041  25259506.28441
      3453.677        2691.172  
 120503103.943    93898544.5964   22930978.522 7  22930978.08443  22930981.73443
     -2373.351       -1849.369  
 129088614.738   100588540.2214   24564747.735 5  24564746.78441  24564753.21841
      1223.945         953.691  
 01 12 19 14 53 41.0000000  0  9G10G25G30G 5G 6G29G17G24G 1         
 130310517.821   101540689.7834   24797266.568 4  24797264.48541  24797272.80441
      2616.144        2038.428  
 113038627.670    88082062.1384   21510534.271 8  21510533.96545  21510537.82645
       424.311         330.634  
 108170520.631    84288734.2224   20584165.816 8  20584165.54145  20584168.66645
     -2295.561       -1788.754  
 122955660.564    95809615.4084   23397684.674 6  23397683.93942  23397689.19242
     -3741.872       -2915.719  
 107028616.929    83398936.3614   20366865.369 8  20366865.35046  20366868.93246
       405.572         316.026  
 127190782.174                    24203599.900 4                                
     -3110.435                  
 132736093.276   103430738.6804   25258840.154 5  25258839.74741  25258849.32841
      3454.105        2691.469  
 120505477.447    93900394.0854   22931430.230 7  22931429.89543  22931433.36843
     -2373.599       -1849.601  
 129087390.773   100587586.5014   24564515.706 5  24564514.23141  24564519.89041
      1223.733         953.543  
 01 12 19 14 53 42.0000000  0  9G10G25G30G 5G 6G29G17G24G 1         
 130307902.221   101538651.6354   24796771.072 4  24796767.56741  24796775.68241
      2615.289        2037.960  
 113038203.887    88081731.9204   21510453.958 8  21510453.15745  21510457.20845
       423.126         329.717  
 108172816.834    84290523.4724   20584602.598 8  20584602.46445  20584605.68946
     -2296.794       -1789.706  
 122959402.731    95812531.3884   23398396.050 6  23398396.22442  23398400.97242
     -3742.824       -2916.471  
 107028211.964    83398620.8054   20366788.462 8  20366788.20746  20366791.79446
       404.352         315.084  
 127193893.423                    24204190.345 4                                
     -3111.342                  
 132732639.533   103428047.4414   25258182.922 5  25258182.72341  25258192.35141
      3452.998        2690.712  
 120507851.523    93902244.0074   22931882.441 7  22931881.82143  22931885.53243
     -2374.842       -1850.513  
 129086167.414   100586633.2204   24564282.024 5  24564281.11141  24564287.13341
      1222.763         952.833  
 01 12 19 14 53 43.0000000  0  9G10G25G30G 5G 6G29G17G24G 1         
 130305286.832   101536613.6924   24796273.945 4  24796269.37641  24796277.88041
      2615.096        2037.711  
 113037780.766    88081402.2164   21510373.321 8  21510372.64345  21510376.65645
       422.579         329.287  
 108175113.537    84292313.1104   20585039.585 8  20585039.48745  20585042.70945
     -2297.020       -1789.875  
 122963145.110    95815447.5324   23399108.338 6  23399108.93942  23399113.33642
     -3742.546       -2916.265  
 107027807.543    83398305.6714   20366711.878 8  20366711.25246  20366714.80746
       404.106         314.888  
 127197004.904                    24204783.524 4                                
     -3110.807                  
 132729185.803   103425356.2074   25257523.281 5  25257524.71941  25257535.54941
      3453.677        2691.167  
 120510226.132    93904094.3604   22932333.904 7  22932333.42543  22932337.23043
     -2374.980       -1850.616  
 129084944.652   100585680.4154   24564049.199 5  24564048.38741  24564055.38941
      1222.230         952.364  
 01 12 19 14 53 44.0000000  0  9G10G25G30G 5G 6G29G17G24G 1         
 130302671.985   101534576.1644   24795776.866 5  24795771.67641  24795781.58741
      2614.807        2037.405  
 113037358.444    88081073.1324   21510292.840 8  21510292.35845  21510296.49045
       422.164         328.974  
 108177410.895    84294103.2604   20585476.993 8  20585476.81945  20585479.86645
     -2297.450       -1790.214  
 122966887.843    95818363.9484   23399820.966 6  23399820.91242  23399825.18742
     -3742.689       -2916.396  
 107027403.828    83397991.0904   20366634.897 8  20366634.48545  20366638.01746
       403.556         314.460  
 127200116.992                    24205375.537 4                                
     -3112.213                  
 132725732.200   103422665.0974   25256865.902 5  25256866.88641  25256877.40741
      3454.086        2691.542  
 120512601.481    93905945.2804   22932785.581 7  22932785.74643  22932789.07643
     -2375.523       -1851.052  
 129083722.666   100584728.2084   24563818.093 6  24563816.14241  24563821.32241
      1221.791         952.055  
 01 12 19 14 53 45.0000000  0  9G10G25G30G 5G 6G29G17G24G 1         
 130300057.242   101532538.6964   24795277.050 5  24795274.90641  24795282.37241
      2614.644        2037.399  
 113036936.576    88080744.4094   21510212.756 8  21510212.15245  21510216.31445
       421.590         328.488  
 108179708.525    84295893.6254   20585914.320 8  20585914.06245  20585917.06445
     -2297.825       -1790.515  
 122970630.588    95821280.3844   23400533.585 6  23400532.98342  23400537.50742
     -3742.865       -2916.527  
 107027000.451    83397676.7744   20366557.754 8  20366557.66845  20366561.12546
       403.282         314.234  
 127203229.112                    24205966.312 4                                
     -3112.062                  
 132722278.415   103419973.8254   25256208.576 5  25256209.40541  25256219.60541
      3453.983        2691.418  
 120514977.174    93907796.4774   22933238.136 7  22933237.88343  22933241.24443
     -2375.891       -1851.345  
 129082501.045   100583776.2874   24563585.847 6  24563581.96141  24563590.37641
      1221.349         951.692  
 01 12 19 14 53 46.0000000  0  9G10G25G30G 5G 6G29G17G24G 1         
 130297442.952   101530501.5834   24794779.450 5  24794778.59541  24794784.84641
      2613.852        2036.655  
 113036515.509    88080416.3074   21510132.541 8  21510132.04045  21510136.23345
       420.690         327.815  
 108182006.813    84297684.4984   20586351.731 8  20586351.46745  20586354.45145
     -2298.452       -1791.001  
 122974373.676    95824197.0734   23401246.452 6  23401245.38542  23401249.75142
     -3743.130       -2916.717  
 107026597.776    83397363.0004   20366481.176 8  20366480.94946  20366484.58846
       402.359         313.538  
 127206341.748                    24206557.898 4                                
     -3113.013                  
 132718824.933   103417282.8014   25255552.557 5  25255551.53741  25255562.45141
      3453.657        2691.196  
 120517353.548    93909648.1934   22933690.619 7  22933689.99843  22933693.70643
     -2376.612       -1851.867  
 129081280.211   100582825.0064   24563352.287 6  24563350.47541  24563357.72141
      1220.329         950.919  
 01 12 19 14 53 47.0000000  0  9G10G25G30G 5G 6G29G17G24G 1         
 130294828.727   101528464.5384   24794279.019 5  24794281.29341  24794288.38541
      2614.062        2036.854  
 113036094.844    88080088.5174   21510052.366 8  21510052.10645  21510056.09945
       419.988         327.266  
 108184305.360    84299475.5724   20586788.857 8  20586788.90745  20586792.01545
     -2299.167       -1791.535  
 122978116.730    95827113.7314   23401958.641 6  23401957.63942  23401962.98442
     -3743.547       -2917.027  
 107026195.397    83397049.4624   20366404.713 8  20366404.37746  20366408.08046
       401.793         313.096  
 127209454.354                    24207150.068 4                                
     -3112.717                  
 132715371.126   103414591.5154   25254896.108 5  25254893.69741  25254905.87341
      3453.043        2690.684  
 120519730.236    93911500.1634   22934142.934 7  22934142.18043  22934146.38343
     -2377.359       -1852.499  
 129080059.672   100581873.9374   24563119.458 6  24563118.59641  24563125.68741
      1219.691         950.427  
 01 12 19 14 53 48.0000000  0  9G10G25G30G 5G 6G29G17G24G 1         
 130292215.052   101526427.9284   24793782.659 5  24793782.20741  24793789.39741
      2613.039        2036.053  
 113035675.038    88079761.3954   21509972.753 8  21509972.34845  21509975.93445
       419.652         327.017  
 108186604.595    84301267.1854   20587226.492 8  20587226.45945  20587229.39645
     -2299.291       -1791.668  
 122981860.161    95830030.6744   23402669.704 6  23402669.47742  23402675.55542
     -3743.402       -2916.963  
 107025793.757    83396736.4984   20366328.218 8  20366327.93245  20366331.67146
       401.513         312.854  
 127212567.569                    24207740.002 4                                
     -3113.626                  
 132711917.537   103411900.4154   25254238.360 5  25254236.37541  25254247.87241
      3453.802        2691.234  
 120522107.684    93913352.7254   22934595.289 7  22934594.40143  22934598.83943
     -2377.683       -1852.720  
 129078839.933   100580923.4934   24562888.487 6  24562887.01441  24562893.93941
      1219.563         950.245  
 01 12 19 14 53 49.0000000  0  9G10G25G30G 5G 6G29G17G24G 1         
 130289601.816   101524391.6354   24793284.838 5  24793283.67541  24793289.48341
      2612.481        2035.745  
 113035256.090    88079434.9424   21509892.971 8  21509892.69045  21509896.36045
       418.360         326.000  
 108188904.534    84303059.3474   20587664.074 8  20587664.21445  20587667.14145
     -2300.312       -1792.430  
 122985604.014    95832947.9644   23403382.315 6  23403382.17542  23403388.07442
     -3744.069       -2917.442  
 107025392.875    83396424.1254   20366252.039 8  20366251.60146  20366255.36345
       400.450         312.048  
 127215681.248                    24208335.067 4                                
     -3113.823                  
 132708464.247   103409209.5314   25253581.450 5  25253580.66841  25253590.47841
      3452.912        2690.599  
 120524485.903    93915205.8774   22935047.659 7  22935047.19043  22935051.05843
     -2378.663       -1853.469  
 129077621.052   100579973.7294   24562657.264 6  24562655.91141  24562662.75641
      1218.339         949.331  
 01 12 19 14 53 50.0000000  0  9G10G25G30G 5G 6G29G17G24G 1         
 130286988.925   101522355.6184   24792790.318 5  24792785.96341  24792792.36341
      2613.156        2036.204  
 113034837.763    88079108.9744   21509813.390 8  21509813.07545  21509816.61045
       418.030         325.735  
 108191204.957    84304851.8844   20588102.003 8  20588101.84445  20588104.79045
     -2300.557       -1792.637  
 122989348.054    95835865.3894   23404094.891 6  23404094.65342  23404099.96442
     -3743.953       -2917.312  
 107024992.498    83396112.1444   20366176.053 8  20366175.38346  20366179.30246
       400.324         311.937  
 127218795.250                    24208928.845 4                                
     -3114.262                  
 132705010.829   103406518.5674   25252925.350 5  25252923.41841  25252932.77941
      3453.285        2690.907  
 120526864.636    93917059.4364   22935500.426 7  22935500.16243  22935503.71643
     -2378.963       -1853.722  
 129076402.668   100579024.3414   24562424.533 6  24562424.59841  24562430.07141
      1218.125         949.151  
 01 12 19 14 53 51.0000000  0  9G10G25G30G 5G 6G29G17G24G 1         
 130284376.099   101520319.6294   24792293.044 4  24792289.20741  24792295.57641
      2613.561        2036.591  
 113034419.902    88078783.3744   21509733.710 8  21509733.52045  21509737.18145
       417.432         325.273  
 108193505.678    84306644.6504   20588539.740 8  20588539.56145  20588542.59145
     -2301.044       -1793.014  
 122993092.099    95838782.8264   23404807.509 6  23404806.57842  23404812.72042
     -3744.156       -2917.512  
 107024592.487    83395800.4494   20366099.897 7  20366099.22646  20366103.27546
       399.825         311.561  
 127221909.408                    24209522.848 4                                
     -3114.255                  
 132701557.306   103403827.5024   25252267.655 5  25252266.67541  25252276.14341
      3453.937        2691.441  
 120529243.733    93918913.2774   22935953.269 7  22935953.37943  22935956.41243
     -2379.438       -1854.092  
 129075184.747   100578075.3274   24562193.640 6  24562192.94841  24562197.81741
      1217.585         948.774  
 01 12 19 14 53 52.0000000  0  9G10G25G30G 5G 6G29G17G24G 1         
 130281763.472   101518283.8194   24791794.485 4  24791791.54041  24791799.99441
      2612.767        2035.893  
 113034002.495    88078458.1224   21509654.141 8  21509653.97545  21509657.64045
       417.451         325.300  
 108195806.731    84308437.6794   20588977.870 8  20588977.56645  20588980.46945
     -2300.962       -1792.931  
 122996836.170    95841700.2754   23405520.247 6  23405518.85942  23405524.33542
     -3743.942       -2917.332  
 107024192.843    83395489.0424   20366023.925 8  20366023.27946  20366027.12646
       399.709         311.472  
 127225023.653                    24210114.470 4                                
     -3113.696                  
 132698103.689   103401136.3624   25251610.337 5  25251609.85141  25251619.67941
      3453.632        2691.110  
 120531623.204    93920767.4144   22936406.397 7  22936405.98243  22936408.84543
     -2379.423       -1854.061  
 129073967.223   100577126.5924   24561961.767 6  24561960.91341  24561966.37741
      1217.576         948.771  
 01 12 19 14 53 53.0000000  0  9G10G25G30G 5G 6G29G17G24G 1         
 130279151.152   101516248.2444   24791297.636 4  24791293.57841  24791300.70041
      2612.187        2035.411  
 113033585.753    88078133.3884   21509574.953 8  21509574.69845  21509578.31945
       416.420         324.483  
 108198108.267    84310231.0834   20589415.824 8  20589415.49145  20589418.44045
     -2301.856       -1793.638  
 123000580.408    95844617.8584   23406232.578 6  23406231.29442  23406237.02442
     -3744.400       -2917.682  
 107023793.739    83395178.0534   20365947.835 8  20365947.24646  20365951.23646
       398.675         310.652  
 127228138.194                    24210706.938 4                                
     -3115.193                  
 132694650.052   103398445.2224   25250953.142 5  25250952.96541  25250962.49241
      3453.220        2690.819  
 120534003.217    93922621.9824   22936859.374 7  22936858.73643  22936861.80643
     -2380.346       -1854.824  
 129072750.310   100576178.3394   24561729.598 6  24561729.00441  24561734.31341
      1216.668         948.058  
 01 12 19 14 53 54.0000000  0  9G10G25G30G 5G 6G29G17G24G 1         
 130276539.325   101514213.0524   24790801.519 4  24790796.21741  24790803.67241
      2611.745        2035.085  
 113033169.825    88077809.2894   21509495.904 8  21509495.53545  21509499.32545
       415.526         323.781  
 108200410.470    84312025.0124   20589853.780 8  20589853.51645  20589856.42145
     -2302.352       -1794.056  
 123004325.013    95847535.7324   23406945.703 6  23406944.27142  23406949.88642
     -3744.710       -2917.932  
 107023395.330    83394867.6064   20365872.110 8  20365871.50046  20365875.36446
       398.313         310.357  
 127231253.243                    24211299.228 4                                
     -3115.367                  
 132691196.566   103395754.2144   25250295.420 5  25250295.28541  25250304.55141
      3453.620        2691.142  
 120536383.940    93924477.0874   22937311.960 7  22937311.61743  22937315.18343
     -2380.887       -1855.204  
 129071534.119   100575230.6604   24561498.008 6  24561497.50741  24561503.84541
      1216.064         947.600  
 01 12 19 14 53 55.0000000  0  9G10G25G30G 5G 6G29G17G24G 1         
 130273927.616   101512177.9714   24790307.933 4  24790297.57441  24790306.27541
      2611.713        2035.115  
 113032754.365    88077485.5534   21509416.758 7  21509416.40845  21509420.51745
       415.538         323.791  
 108202712.996    84313819.1904   20590291.702 8  20590291.77545  20590294.69345
     -2302.569       -1794.205  
 123008069.660    95850453.6474   23407658.126 6  23407656.68742  23407662.42542
     -3744.356       -2917.659  
 107022997.328    83394557.4744   20365796.348 8  20365795.71845  20365799.69646
       398.009         310.140  
 127234368.429                    24211891.738 4                                
     -3114.864                  
 132687743.008   103393063.1214   25249638.578 5  25249637.33741  25249647.30341
      3453.319        2690.905  
 120538765.078    93926332.5114   22937765.407 7  22937764.70843  22937768.61043
     -2381.115       -1855.424  
 129070318.414   100574283.3484   24561266.278 6  24561266.63541  24561272.54841
      1215.675         947.353  
 01 12 19 14 53 56.0000000  0  9G10G25G30G 5G 6G29G17G24G 1         
 130271316.164   101510143.1224   24789810.924 4  24789800.95741  24789808.03141
      2611.235        2034.684  
 113032339.523    88077162.2994   21509337.612 8  21509337.41445  21509341.44145
       414.569         323.065  
 108205015.970    84315613.7144   20590730.043 8  20590730.14245  20590732.99745
     -2303.209       -1794.698  
 123011814.463    95853371.6864   23408370.501 6  23408369.76242  23408375.02742
     -3744.756       -2917.972  
 107022599.791    83394247.7074   20365720.521 8  20365720.11346  20365723.86246
       397.273         309.549  
 127237483.911                    24212485.188 4                                
     -3115.778                  
 132684289.366   103390371.9764   25248981.069 5  25248980.34241  25248990.25941
      3453.633        2691.232  
 120541146.702    93928188.3334   22938218.238 7  22938217.66443  22938221.43843
     -2381.809       -1855.932  
 129069103.228   100573336.4334   24561034.879 6  24561033.44641  24561041.27741
      1214.915         946.629  
 01 12 19 14 53 57.0000000  0  9G10G25G30G 5G 6G29G17G24G 1         
 130268705.044   101508108.4624   24789311.592 5  24789303.49141  24789312.97241
      2611.033        2034.636  
 113031925.307    88076839.5364   21509259.008 8  21509258.52445  21509262.62045
       413.867         322.496  
 108207319.372    84317408.5724   20591168.386 8  20591168.42845  20591171.30545
     -2303.513       -1794.934  
 123015559.436    95856289.8414   23409082.861 6  23409082.32442  23409087.92942
     -3744.995       -2918.163  
 107022202.770    83393938.3414   20365644.829 8  20365644.53846  20365648.29246
       396.954         309.311  
 127240599.604                    24213078.044 4                                
     -3115.655                  
 132680835.653   103387680.7644   25248322.952 5  25248322.59941  25248333.18941
      3453.724        2691.216  
 120543528.845    93930044.5534   22938671.311 7  22938670.62943  22938674.41643
     -2382.316       -1856.372  
 129067888.586   100572389.9744   24560804.220 6  24560802.92341  24560810.08441
      1214.412         946.252  
 01 12 19 14 53 58.0000000  0  9G10G25G30G 5G 6G29G17G24G 1         
 130266094.199   101506074.0194   24788814.261 5  24788808.12941  24788819.56241
      2610.528        2034.253  
 113031511.807    88076517.3284   21509180.320 8  21509179.82145  21509183.97845
       412.936         321.775  
 108209623.368    84319203.8954   20591606.501 8  20591606.79345  20591609.75945
     -2304.361       -1795.607  
 123019304.675    95859208.2084   23409795.738 6  23409794.84942  23409800.61742
     -3745.240       -2918.364  
 107021806.362    83393629.4544   20365569.304 8  20365569.03046  20365572.92146
       396.301         308.816  
 127243715.786                    24213666.423 4                                
     -3116.846                  
 132677382.160   103384989.7364   25247665.936 5  25247665.16941  25247676.46941
      3453.195        2690.766  
 120545911.622    93931901.2684   22939124.647 7  22939124.35143  22939128.11943
     -2383.091       -1856.980  
 129066674.660   100571444.0874   24560573.481 6  24560572.15441  24560579.56841
      1213.575         945.580  
 01 12 19 14 53 59.0000000  0  9G10G25G30G 5G 6G29G17G24G 1         
 130263483.768   101504039.9134   24788316.557 5  24788312.12541  24788324.32841
      2610.535        2034.172  
 113031098.909    88076195.5914   21509101.672 7  21509101.23245  21509105.41545
       412.506         321.440  
 108211927.798    84320999.5534   20592044.951 8  20592045.19545  20592048.39945
     -2304.537       -1795.735  
 123023050.054    95862126.6824   23410508.214 6  23410507.68242  23410513.15542
     -3745.427       -2918.519  
 107021410.461    83393320.9614   20365494.382 8  20365493.67945  20365497.51546
       395.822         308.435  
 127246832.183                    24214260.502 4                                
     -3116.339                  
 132673928.566   103382298.6214   25247008.735 5  25247008.39341  25247019.42941
      3453.964        2691.487  
 120548294.886    93933758.3564   22939578.661 7  22939577.95543  22939581.64043
     -2383.389       -1857.146  
 129065461.248   100570498.5674   24560342.864 6  24560342.57341  24560348.80841
      1213.414         945.540  
 01 12 19 14 54  0.0000000  0  9G10G25G30G 5G 6G29G17G24G 1         
 130260873.547   101502005.9554   24787819.899 5  24787816.26341  24787828.86741
      2609.855        2033.697  
 113030686.701    88075874.3914   21509023.259 8  21509022.89045  21509026.95845
       411.804         320.889  
 108214232.801    84322795.6634   20592484.086 8  20592483.91345  20592487.09046
     -2305.245       -1796.301  
 123026795.697    95865045.3734   23411220.692 6  23411220.09242  23411225.87342
     -3745.666       -2918.706  
 107021015.154    83393012.9334   20365418.841 8  20365418.52346  20365422.35246
       395.275         307.994  
 127249948.932                    24214855.033 4                                
     -3116.219                  
 132670475.064   103379607.5854   25246351.975 5  25246350.80141  25246362.03341
      3453.736        2691.211  
 120550678.763    93935615.9264   22940031.664 7  22940031.55343  22940035.26943
     -2384.083       -1857.719  
 129064248.492   100569553.5674   24560112.179 6  24560111.85741  24560119.04241
      1212.413         944.660  
 01 12 19 14 54  1.0000000  0  9G10G25G30G 5G 6G29G17G24G 1         
 130258263.608   101499972.2784   24787324.152 5  24787321.80941  24787332.58041
      2610.117        2033.774  
 113030275.091    88075553.6524   21508945.061 8  21508944.55445  21508948.61745
       411.195         320.396  
 108216538.230    84324592.0994   20592923.050 8  20592922.65645  20592925.70745
     -2305.740       -1796.693  
 123030541.486    95867964.1644   23411933.536 6  23411932.37742  23411939.15442
     -3746.065       -2919.047  
 107020620.345    83392705.2914   20365343.696 8  20365343.28046  20365347.21546
       394.510         307.395  
 127253065.818                    24215446.549 4                                
     -3116.554                  
 132667021.511   103376916.5244   25245695.597 5  25245693.50641  25245703.62241
      3453.846        2691.239  
 120553063.125    93937473.8764   22940485.226 7  22940485.27143  22940488.87043
     -2384.667       -1858.171  
 129063036.308   100568608.9984   24559880.216 6  24559880.72541  24559888.72141
      1212.019         944.451  
 01 12 19 14 54  2.0000000  0  9G10G25G30G 5G 6G29G17G24G 1         
 130255654.089   101497938.9274   24786827.264 5  24786825.81441  24786834.50641
      2608.839        2032.932  
 113029864.180    88075233.4644   21508866.661 8  21508866.43345  21508870.23345
       410.756         320.074  
 108218844.192    84326388.9524   20593361.716 8  20593361.33145  20593364.42645
     -2306.160       -1797.017  
 123034287.507    95870883.1334   23412646.304 6  23412645.51242  23412651.77242
     -3745.904       -2918.861  
 107020226.103    83392398.0964   20365268.538 8  20365268.22445  20365272.18046
       393.961         306.980  
 127256183.212                    24216042.022 4                                
     -3117.051                  
 132663568.064   103374225.4994   25245038.164 5  25245036.18741  25245046.70141
      3453.677        2691.229  
 120555448.112    93939332.3074   22940939.200 7  22940939.18443  22940942.85243
     -2385.285       -1858.707  
 129061824.704   100567664.8874   24559649.619 6  24559650.74341  24559657.71241
      1211.322         943.916  
 01 12 19 14 54  3.0000000  0  9G10G25G30G 5G 6G29G17G24G 1         
 130253044.783   101495905.7014   24786330.793 4  24786329.35141  24786339.14041
      2608.999        2032.929  
 113029453.838    88074913.7184   21508788.681 8  21508788.39445  21508792.02945
       409.863         319.376  
 108221150.547    84328186.1154   20593800.292 8  20593800.18945  20593803.30345
     -2306.719       -1797.440  
 123038033.637    95873802.1894   23413359.666 6  23413358.13642  23413364.81742
     -3746.260       -2919.164  
 107019832.306    83392091.2414   20365193.573 8  20365193.23545  20365197.23545
       393.601         306.711  
 127259300.791                    24216636.467 4                                
     -3117.507                  
 132660114.516   103371534.3984   25244380.583 5  25244378.91041  25244388.43341
      3453.540        2691.122  
 120557833.525    93941191.0664   22941393.060 7  22941393.29443  22941396.53243
     -2385.693       -1858.990  
 129060613.635   100566721.1904   24559419.677 6  24559420.23441  24559426.50841
      1210.713         943.454  
 01 12 19 14 54  4.0000000  0  9G10G25G30G 5G 6G29G17G24G 1         
 130250435.653   101493872.6214   24785834.014 4  24785834.24941  24785841.27241
      2608.823        2032.816  
 113029044.017    88074594.3814   21508710.874 8  21508710.45845  21508714.16645
       409.602         319.168  
 108223457.317    84329983.5964   20594239.455 8  20594239.07445  20594242.24045
     -2307.030       -1797.681  
 123041779.859    95876721.3204   23414071.091 6  23414071.16042  23414077.78342
     -3746.478       -2919.307  
 107019438.976    83391784.7524   20365118.749 8  20365118.35346  20365122.43446
       392.842         306.103  
 127262418.574                    24217230.764 4                                
     -3117.336                  
 132656660.883   103368843.2694   25243721.828 5  25243721.73741  25243732.04841
      3453.715        2691.240  
 120560219.409    93943050.1904   22941846.985 7  22941847.29443  22941850.77443
     -2386.253       -1859.397  
 129059403.062   100565777.8794   24559189.570 6  24559189.65641  24559195.69341
      1210.503         943.331  
 01 12 19 14 54  5.0000000  0  9G10G25G30G 5G 6G29G17G24G 1         
 130247826.771   101491839.7674   24785336.932 4  24785337.39841  24785342.92641
      2609.142        2033.083  
 113028634.732    88074275.4564   21508632.904 8  21508632.44845  21508636.34445
       409.266         318.903  
 108225764.435    84331781.3484   20594678.443 8  20594678.15445  20594681.10445
     -2307.174       -1797.800  
 123045526.154    95879640.5104   23414784.279 6  23414784.23242  23414790.56242
     -3746.262       -2919.129  
 107019046.023    83391478.5524   20365044.149 7  20365043.57846  20365047.65846
       392.849         306.121  
 127265536.483                    24217823.658 3                                
     -3117.579                  
 132653207.116   103366152.0114   25243065.504 5  25243065.24041  25243074.42441
      3454.070        2691.461  
 120562605.684    93944909.6334   22942301.170 7  22942300.95043  22942304.78043
     -2386.276       -1859.450  
 129058192.954   100564834.9594   24558958.724 5  24558959.51941  24558965.04041
      1210.095         942.956  
 01 12 19 14 54  6.0000000  0  9G10G25G30G 5G 6G29G17G24G 1         
 130245218.078   101489807.0494   24784840.584 4  24784840.47141  24784846.55441
      2608.109        2032.197  
 113028226.027    88073956.9924   21508555.163 8  21508554.59245  21508558.75745
       408.611         318.388  
 108228071.994    84333579.4534   20595117.579 8  20595117.38546  20595120.26646
     -2307.562       -1798.122  
 123049272.593    95882559.8184   23415498.009 6  23415497.17042  23415503.21142
     -3746.226       -2919.200  
 107018653.570    83391172.7524   20364969.344 8  20364968.83446  20364973.07846
       392.510         305.837  
 127268654.762                    24218417.008 3                                
     -3118.389                  
 132649753.356   103363460.7864   25242407.527 5  25242408.96741  25242417.28041
      3454.091        2691.438  
 120564992.466    93946769.4714   22942755.465 7  22942754.74543  22942758.44643
     -2386.839       -1859.887  
 129056983.355   100563892.4174   24558728.435 5  24558728.11441  24558735.48541
      1209.747         942.596  
 01 12 19 14 54  7.0000000  0  9G10G25G30G 5G 6G29G17G24G 1         
 130242609.764   101487774.6004   24784345.700 4  24784343.92441  24784350.68841
      2608.335        2032.569  
 113027817.987    88073639.0384   21508477.557 8  21508477.01345  21508481.11245
       407.668         317.669  
 108230380.045    84335377.9334   20595556.729 8  20595556.54845  20595559.72446
     -2308.272       -1798.643  
 123053019.198    95885479.2474   23416210.241 6  23416209.84042  23416215.71042
     -3746.548       -2919.394  
 107018261.656    83390867.3624   20364895.066 7  20364894.40445  20364898.44146
       391.576         305.134  
 127271773.262                    24219007.758 3                                
     -3118.259                  
 132646299.578   103360769.5394   25241750.269 5  25241751.31241  25241759.33641
      3453.551        2691.030  
 120567379.788    93948629.7184   22943208.788 7  22943209.00043  22943212.90243
     -2387.584       -1860.438  
 129055774.388   100562950.3734   24558499.147 6  24558498.43941  24558504.54141
      1208.601         941.834  
 01 12 19 14 54  8.0000000  0  9G10G25G30G 5G 6G29G17G24G 1         
 130240001.604   101485742.2784   24783842.367 4  24783844.38241  24783853.76841
      2608.304        2032.413  
 113027410.423    88073321.4564   21508399.825 8  21508399.52045  21508403.47445
       407.095         317.221  
 108232688.460    84337176.6964   20595996.037 8  20595995.87345  20595999.08445
     -2308.815       -1799.068  
 123056765.866    95888398.7154   23416923.260 6  23416923.15242  23416929.29842
     -3746.930       -2919.657  
 107017870.158    83390562.3034   20364820.346 8  20364819.96346  20364823.98046
       390.893         304.582  
 127274891.944                    24219601.945 3                                
     -3118.288                  
 132642845.745   103358078.2204   25241093.390 5  25241093.84641  25241103.71741
      3454.144        2691.591  
 120569767.527    93950490.3004   22943663.573 7  22943663.23043  22943667.37343
     -2388.225       -1860.953  
 129054565.880   100562008.6714   24558269.950 6  24558268.67141  24558274.42041
      1208.115         941.453  
 01 12 19 14 54  9.0000000  0  9G10G25G30G 5G 6G29G17G24G 1         
 130237393.719   101483710.1554   24783349.771 4  24783347.80841  24783357.39041
      2607.562        2031.802  
 113027003.476    88073004.3544   21508322.424 7  21508322.02345  21508325.95345
       406.499         316.755  
 108234997.294    84338975.7874   20596435.711 8  20596435.28145  20596438.38345
     -2309.256       -1799.416  
 123060512.705    95891318.3334   23417636.740 6  23417635.74942  23417641.76442
     -3746.981       -2919.746  
 107017479.139    83390257.6174   20364745.848 8  20364745.61945  20364749.52346
       390.525         304.313  
 127278010.961                    24220195.747 3                                
     -3119.531                  
 132639391.837   103355386.8514   25240438.136 5  25240437.18241  25240446.75741
      3453.640        2691.246  
 120572155.756    93952351.2664   22944118.346 7  22944117.78243  22944122.08243
     -2388.629       -1861.260  
 129053357.901   100561067.4004   24558039.407 6  24558037.37141  24558044.92541
      1207.637         941.010  
 01 12 19 14 54 10.0000000  0  9G10G25G30G 5G 6G29G17G24G 1         
 130234786.250   101481678.3814   24782853.201 4  24782851.64841  24782862.08941
      2606.812        2031.206  
 113026597.279    88072687.8384   21508245.118 8  21508244.73045  21508248.53945
       405.860         316.236  
 108237306.729    84340775.3504   20596875.009 8  20596874.97545  20596877.72345
     -2309.728       -1799.809  
 123064259.812    95894238.1624   23418349.672 6  23418348.97842  23418354.28642
     -3747.216       -2919.920  
 107017088.740    83389953.4104   20364671.561 8  20364671.43445  20364675.25145
       390.104         303.965  
 127281130.244                    24220789.872 3                                
     -3118.763                  
 132635938.006   103352695.5664   25239782.428 5  25239780.32641  25239790.65241
      3453.838        2691.266  
 120574544.645    93954212.7504   22944572.820 7  22944572.23143  22944576.74843
     -2389.300       -1861.782  
 129052150.650   100560126.6764   24557809.594 6  24557808.25641  24557814.92841
      1206.978         940.459  
 01 12 19 14 54 11.0000000  0  9G10G25G30G 5G 6G29G17G24G 1         
 130232179.032   101479646.7834   24782356.889 4  24782356.25341  24782369.50241
      2607.681        2031.822  
 113026191.784    88072371.8694   21508167.863 8  21508167.39345  21508171.20745
       405.203         315.749  
 108239616.721    84342575.3474   20597314.515 8  20597314.42645  20597317.08945
     -2310.228       -1800.168  
 123068007.210    95897158.2044   23419062.866 6  23419062.73242  23419067.82442
     -3747.635       -2920.266  
 107016698.985    83389649.7074   20364598.012 8  20364597.22246  20364600.95946
       389.356         303.405  
 127284250.013                    24221384.099 4                                
     -3119.731                  
 132632484.361   103350004.4074   25239123.343 5  25239123.37841  25239134.48241
      3453.852        2691.360  
 120576934.136    93956074.6784   22945027.668 7  22945026.50343  22945031.91543
     -2389.684       -1862.103  
 129050944.018   100559186.4554   24557579.805 6  24557579.65941  24557585.51041
      1206.241         939.893  
 01 12 19 14 54 12.0000000  0  9G10G25G30G 5G 6G29G17G24G 1         
 130229572.281   101477615.5744   24781857.875 4  24781861.40541  24781873.67041
      2606.587        2031.118  
 113025786.977    88072056.4354   21508091.035 8  21508090.37245  21508094.16045
       404.276         315.020  
 108241927.264    84344375.7694   20597753.842 8  20597754.01845  20597756.86845
     -2310.928       -1800.711  
 123071754.826    95900078.4174   23419775.702 6  23419775.84142  23419781.30842
     -3747.719       -2920.270  
 107016309.790    83389346.4414   20364522.912 8  20364523.07145  20364526.93546
       388.781         302.946  
 127287370.074                    24221979.018 4                                
     -3120.046                  
 132629030.681   103347313.2244   25238465.805 5  25238465.42841  25238477.14341
      3453.572        2691.086  
 120579324.231    93957937.0844   22945482.832 7  22945481.50843  22945486.37143
     -2390.558       -1862.782  
 129049737.991   100558246.6994   24557349.788 5  24557349.26241  24557354.87341
      1205.561         939.394  
 01 12 19 14 54 13.0000000  0  9G10G25G30G 5G 6G29G17G24G 1         
 130226965.658   101475584.4194   24781360.244 4  24781365.71241  24781376.74441
      2606.921        2031.337  
 113025382.605    88071741.3404   21508013.857 8  21508013.38545  21508017.17145
       404.155         314.920  
 108244238.065    84346176.3954   20598193.391 8  20598193.86845  20598196.73745
     -2310.871       -1800.670  
 123075502.413    95902998.6194   23420489.366 6  23420489.28542  23420494.25742
     -3747.560       -2920.208  
 107015920.904    83389043.4134   20364449.295 7  20364448.93846  20364452.89046
       388.792         302.956  
 127290490.171                    24222571.719 4                                
     -3119.491                  
 132625576.866   103344621.9414   25237808.774 5  25237808.08841  25237819.55441
      3453.953        2691.274  
 120581714.637    93959799.7374   22945936.907 7  22945936.40243  22945941.12543
     -2390.449       -1862.674  
 129048532.408   100557307.2634   24557120.424 6  24557120.38541  24557125.84441
      1205.734         939.530  
 01 12 19 14 54 14.0000000  0  9G10G25G30G 5G 6G29G17G24G 1         
 130224358.997   101473553.2514   24780869.581 4  24780871.09941  24780881.02641
      2606.566        2031.080  
 113024978.616    88071426.5444   21507936.793 8  21507936.43045  21507940.39245
       403.970         314.788  
 108246549.102    84347977.2054   20598633.740 8  20598633.78945  20598636.55645
     -2311.034       -1800.796  
 123079249.941    95905918.7654   23421202.268 6  23421202.34142  23421207.40342
     -3747.424       -2920.061  
 107015532.319    83388740.6244   20364375.351 8  20364374.95845  20364378.91646
       388.437         302.681  
 127293610.399                    24223164.993 4                                
     -3119.868                  
 132622122.757   103341930.4004   25237150.298 5  25237150.62241  25237161.80541
      3454.672        2691.934  
 120584105.335    93961662.6284   22946391.797 7  22946391.53443  22946396.01543
     -2390.677       -1862.854  
 129047327.099   100556368.0464   24556891.188 6  24556890.52541  24556898.41941
      1205.354         939.209  
 01 12 19 14 54 15.0000000  0  9G10G25G30G 5G 6G29G17G24G 1         
 130221752.551   101471522.2484   24780373.493 4  24780376.64241  24780384.75741
      2605.987        2030.633  
 113024575.202    88071112.2004   21507859.885 7  21507859.72545  21507863.91145
       402.945         313.964  
 108248860.521    84349778.3064   20599073.392 8  20599073.44745  20599076.38345
     -2311.638       -1801.275  
 123082997.567    95908838.9964   23421915.609 6  23421915.50542  23421920.45242
     -3747.785       -2920.340  
 107015144.146    83388438.1534   20364301.626 8  20364300.95446  20364305.18846
       388.073         302.387  
 127296730.871                    24223758.711 4                                
     -3121.020                  
 132618668.642   103339238.8974   25236492.488 5  25236492.96741  25236506.26641
      3453.717        2691.157  
 120586496.477    93963525.8594   22946846.969 7  22946846.73943  22946850.65843
     -2391.310       -1863.367  
 129046122.332   100555429.3094   24556662.156 6  24556661.13341  24556669.13141
      1204.443         938.503  
 01 12 19 14 54 16.0000000  0  9G10G25G30G 5G 6G29G17G24G 1         
 130219146.233   101469491.3824   24779880.724 4  24779880.21041  24779889.03641
      2606.206        2030.741  
 113024172.190    88070798.1644   21507783.166 8  21507782.98445  21507787.29245
       403.009         314.022  
 108251172.225    84351579.6344   20599513.122 8  20599513.25346  20599516.28546
     -2311.515       -1801.186  
 123086745.147    95911759.1914   23422628.982 6  23422628.21642  23422633.53742
     -3747.160       -2919.886  
 107014756.345    83388135.9744   20364227.828 8  20364227.16946  20364231.36045
       387.988         302.331  
 127299851.308                    24224354.998 4                                
     -3120.123                  
 132615214.229   103336547.1584   25235833.891 5  25235836.28541  25235848.70241
      3454.782        2691.958  
 120588887.968    93965389.3544   22947302.261 7  22947301.94743  22947305.94543
     -2391.394       -1863.406  
 129044917.940   100554490.8494   24556432.460 6  24556431.25741  24556440.02241
      1204.347         938.419  
 01 12 19 14 54 17.0000000  0  9G10G25G30G 5G 6G29G17G24G 1         
 130216540.097   101467460.6184   24779386.274 4  24779384.25641  24779391.43741
      2606.266        2030.817  
 113023769.717    88070484.5514   21507706.825 7  21507706.32045  21507710.66345
       401.826         313.103  
 108253484.297    84353381.2524   20599953.020 8  20599953.14445  20599956.20845
     -2312.489       -1801.952  
 123090492.824    95914679.4614   23423342.620 6  23423340.86342  23423347.12442
     -3747.927       -2920.477  
 107014368.924    83387834.0904   20364153.806 8  20364153.47446  20364157.66046
       387.004         301.539  
 127302971.955                    24224946.563 4                                
     -3121.024                  
 132611759.729   103333855.3334   25235177.667 5  25235178.07741  25235191.02041
      3455.273        2692.403  
 120591279.864    93967253.1764   22947757.491 6  22947757.38443  22947761.24043
     -2392.460       -1864.294  
 129043713.975   100553552.6934   24556202.305 6  24556202.24741  24556210.40741
      1203.438         937.720  
 01 12 19 14 54 18.0000000  0  9G10G25G30G 5G 6G29G17G24G 1         
 130213934.260   101465430.0984   24778893.009 5  24778889.22541  24778895.93141
      2605.968        2030.607  
 113023367.897    88070171.4464   21507630.367 7  21507629.91845  21507634.05645
       401.542         312.879  
 108255796.872    84355183.2614   20600393.135 8  20600393.10745  20600396.22745
     -2312.821       -1802.201  
 123094240.711    95917599.8874   23424055.284 6  23424054.10742  23424060.37342
     -3748.010       -2920.522  
 107013982.071    83387532.6514   20364080.035 8  20364079.75746  20364084.15746
       386.672         301.291  
 127306093.034                    24225538.585 4                                
     -3121.583                  
 132608305.339   103331163.5914   25234523.162 5  25234521.12141  25234532.98841
      3454.331        2691.709  
 120593672.335    93969117.4434   22948213.405 7  22948212.52643  22948216.61943
     -2392.811       -1864.545  
 129042510.619   100552614.9944   24555974.086 6  24555973.30741  24555981.55441
      1203.011         937.415  
 01 12 19 14 54 19.0000000  0  9G10G25G30G 5G 6G29G17G24G 1         
 130211328.730   101463399.8084   24778397.139 5  24778393.50741  24778399.20341
      2605.126        2029.978  
 113022966.629    88069858.7674   21507554.107 7  21507553.66345  21507557.93345
       400.970         312.430  
 108258109.836    84356985.5624   20600833.209 8  20600833.11045  20600836.35745
     -2313.117       -1802.430  
 123097988.713    95920520.4064   23424768.776 6  23424767.00542  23424773.73042
     -3748.016       -2920.538  
 107013595.673    83387231.5614   20364006.336 7  20364006.22846  20364010.55646
       386.197         300.934  
 127309214.202                    24226130.423 4                                
     -3120.762                  
 132604850.844   103328471.7704   25233862.628 5  25233863.37041  25233874.89041
      3454.839        2692.117  
 120596065.227    93970982.0304   22948669.213 7  22948667.96143  22948672.29543
     -2393.064       -1864.741  
 129041307.809   100551677.7484   24555745.241 6  24555744.31441  24555751.60041
      1202.582         937.124  
 01 12 19 14 54 20.0000000  0  9G10G25G30G 5G 6G29G17G24G 1         
 130208723.405   101461369.7174   24777899.916 5  24777898.43541  24777902.88841
      2604.835        2029.599  
 113022565.976    88069546.5694   21507477.794 8  21507477.48845  21507481.71545
       400.224         311.871  
 108260423.243    84358788.2234   20601273.771 8  20601273.43745  20601276.55045
     -2313.747       -1802.932  
 123101736.816    95923441.0074   23425481.998 6  23425480.55142  23425487.04242
     -3748.343       -2920.801  
 107013209.735    83386930.8324   20363933.247 7  20363932.90346  20363937.09246
       385.590         300.465  
 127312335.712                    24226722.310 4                                
     -3122.419                  
 132601396.290   103325779.9294   25233203.868 4  25233206.37941  25233218.15841
      3454.284        2691.675  
 120598458.634    93972847.0344   22949124.646 7  22949123.43943  22949127.73743
     -2393.698       -1865.247  
 129040105.512   100550740.8824   24555516.586 6  24555516.56041  24555522.50441
      1202.042         936.685  
 01 12 19 14 54 21.0000000  0  9G10G25G30G 5G 6G29G17G24G 1         
 130206118.321   101459339.7944   24777401.531 5  24777402.76941  24777406.87841
      2605.079        2029.891  
 113022165.897    88069234.8224   21507401.673 7  21507401.28845  21507405.40045
       399.851         311.556  
 108262737.084    84360591.2194   20601713.742 8  20601713.63645  20601716.94645
     -2313.930       -1803.063  
 123105485.064    95926361.7134   23426196.086 6  23426194.61242  23426200.08142
     -3748.016       -2920.565  
 107012824.286    83386630.4844   20363860.194 8  20363859.55046  20363863.68746
       385.312         300.232  
 127315457.376                    24227318.211 4                                
     -3122.538                  
 132597941.752   103323088.0814   25232545.266 4  25232548.25341  25232561.28441
      3455.015        2692.267  
 120600852.532    93974712.4124   22949579.479 7  22949579.00943  22949582.85543
     -2394.082       -1865.520  
 129038903.788   100549804.4744   24555288.968 6  24555287.99941  24555294.24741
      1201.429         936.153  
 01 12 19 14 54 22.0000000  0  9G10G25G30G 5G 6G29G17G24G 1         
 130203513.552   101457310.1034   24776904.742 5  24776906.43841  24776909.81441
      2604.400        2029.350  
 113021766.440    88068923.5604   21507325.759 7  21507325.25845  21507329.19145
       399.010         310.924  
 108265051.411    84362394.5894   20602154.277 8  20602154.24145  20602157.38445
     -2314.694       -1803.635  
 123109233.513    95929282.5894   23426908.264 6  23426908.13842  23426913.17242
     -3748.576       -2920.979  
 107012439.398    83386330.5704   20363786.920 7  20363786.35746  20363790.34846
       384.525         299.640  
 127318579.435                    24227912.030 4                                
     -3122.467                  
 132594487.136   103320396.1864   25231891.901 4  25231891.10141  25231904.57741
      3454.676        2692.064  
 120603246.988    93976578.2214   22950034.499 7  22950034.22443  22950038.36743
     -2394.980       -1866.191  
 129037702.591   100548868.4974   24555059.385 6  24555059.00441  24555065.96941
      1201.178         935.919  
 01 12 19 14 54 23.0000000  0  9G10G25G30G 5G 6G29G17G24G 1         
 130200909.086   101455280.6444   24776408.692 5  24776410.30641  24776414.28941
      2604.675        2029.531  
 113021367.655    88068612.8224   21507249.914 8  21507249.48945  21507253.40245
       398.358         310.413  
 108267366.220    84364198.3394   20602594.858 8  20602594.72845  20602597.99545
     -2315.032       -1803.910  
 123112982.152    95932203.6034   23427620.815 6  23427621.32842  23427626.46242
     -3748.878       -2921.176  
 107012055.009    83386031.0484   20363713.841 8  20363713.24645  20363717.29246
       384.017         299.242  
 127321701.737                    24228508.526 4                                
     -3122.809                  
 132591032.724   103317704.4434   25231235.302 4  25231233.35841  25231247.31841
      3453.924        2691.343  
 120605641.966    93978444.4294   22950490.057 7  22950489.91643  22950494.09043
     -2395.472       -1866.595  
 129036502.047   100547933.0074   24554831.217 6  24554830.12941  24554836.77241
      1200.031         935.093  
 01 12 19 14 54 24.0000000  0  9G10G25G30G 5G 6G29G17G24G 1         
 130198305.063   101453251.5264   24775913.556 5  24775915.93841  24775919.20041
      2604.325        2029.410  
 113020969.542    88068302.6024   21507174.174 8  21507173.77945  21507177.67445
       397.767         309.936  
 108269681.560    84366002.5014   20603035.882 8  20603035.50445  20603038.59245
     -2315.466       -1804.261  
 123116731.036    95935124.8194   23428335.283 6  23428335.06042  23428339.74642
     -3748.828       -2921.126  
 107011671.223    83385731.9954   20363640.723 7  20363640.31246  20363644.35446
       383.654         298.957  
 127324824.442                    24229100.343 4                                
     -3123.065                  
 132587578.197   103315012.6024   25230577.020 4  25230575.66141  25230589.16141
      3454.228        2691.683  
 120608037.522    93980311.0984   22950946.388 7  22950945.62643  22950950.48643
     -2395.718       -1866.808  
 129035302.117   100546997.9794   24554603.071 6  24554602.78641  24554608.10141
      1199.592         934.767  
 01 12 19 14 54 25.0000000  0  9G10G25G30G 5G 6G29G17G24G 1         
 130195701.137   101451222.5154   24775416.959 5  24775420.54841  24775423.38241
      2603.288        2028.464  
 113020571.988    88067992.8184   21507098.449 8  21507098.20445  21507102.04445
       397.038         309.385  
 108271997.283    84367806.9614   20603476.001 8  20603476.23345  20603479.16845
     -2315.970       -1804.651  
 123120479.997    95938046.0874   23429048.579 6  23429048.58342  23429052.76742
     -3748.954       -2921.233  
 107011287.874    83385433.2864   20363567.590 8  20363567.31946  20363571.38646
       383.107         298.537  
 127327947.265                    24229698.653 4                                
     -3122.631                  
 132584123.591   103312320.7194   25229918.970 4  25229919.25441  25229930.95541
      3454.733        2692.031  
 120610433.522    93982178.1214   22951402.755 7  22951401.98743  22951406.53543
     -2396.276       -1867.241  
 129034102.665   100546063.3404   24554374.375 6  24554373.89341  24554379.23241
      1199.083         934.340  
 01 12 19 14 54 26.0000000  0  9G10G25G30G 5G 6G29G17G24G 1         
 130193097.750   101449193.8744   24774921.254 4  24774924.77041  24774927.29141
      2602.983        2028.327  
 113020175.244    88067683.6634   21507023.189 7  21507022.62645  21507026.61345
       396.115         308.688  
 108274313.680    84369611.9484   20603916.908 8  20603916.94545  20603919.81845
     -2316.948       -1805.419  
 123124229.322    95940967.6364   23429762.513 6  23429761.65642  23429766.55242
     -3749.800       -2921.920  
 107010905.237    83385135.1284   20363494.951 7  20363494.52045  20363498.45345
       382.129         297.756  
 127331070.618                    24230294.400 4                                
     -3123.861                  
 132580669.214   103309628.9954   25229262.046 4  25229261.88041  25229272.78841
      3454.076        2691.466  
 120612830.241    93984045.6994   22951858.326 7  22951857.99143  22951862.66643
     -2397.274       -1868.005  
 129032903.972   100545129.2984   24554146.125 6  24554145.90541  24554151.26241
      1198.093         933.542  
 01 12 19 14 54 27.0000000  0  9G10G25G30G 5G 6G29G17G24G 1         
 130190494.742   101447165.5304   24774425.355 4  24774429.48541  24774432.40541
      2603.775        2028.910  
 113019779.246    88067375.0944   21506947.531 7  21506947.16945  21506951.43645
       395.774         308.410  
 108276630.662    84371417.3914   20604357.544 8  20604357.82545  20604360.76145
     -2317.082       -1805.529  
 123127978.961    95943889.4354   23430475.980 6  23430475.24542  23430480.06242
     -3749.683       -2921.847  
 107010523.236    83384837.4634   20363422.423 7  20363421.95046  20363425.72546
       381.949         297.622  
 127334194.363                    24230888.290 4                                
     -3123.471                  
 132577214.982   103306937.3854   25228605.104 4  25228604.21541  25228616.00441
      3454.335        2691.688  
 120615227.631    93985913.7964   22952315.116 7  22952314.47743  22952318.85143
     -2397.670       -1868.271  
 129031705.985   100544195.8134   24553918.005 6  24553918.14841  24553924.25541
      1197.911         933.418  
 01 12 19 14 54 28.0000000  0  9G10G25G30G 5G 6G29G17G24G 1         
 130187891.934   101445137.3894   24773932.786 4  24773933.06141  24773938.25941
      2602.747        2028.132  
 113019383.774    88067066.9354   21506872.297 8  21506871.89645  21506876.03945
       395.127         307.892  
 108278947.995    84373223.1014   20604798.984 8  20604798.88345  20604801.51045
     -2317.621       -1805.938  
 123131728.628    95946811.2474   23431189.552 6  23431188.43242  23431193.22242
     -3749.686       -2921.815  
 107010141.617    83384540.0994   20363349.715 8  20363349.34145  20363353.13346
       381.546         297.305  
 127337318.339                    24231478.803 4                                
     -3123.644                  
 132573760.616   103304245.6704   25227947.745 4  25227946.83141  25227958.88541
      3454.947        2692.156  
 120617625.392    93987782.1924   22952771.993 7  22952770.85443  22952775.22343
     -2398.048       -1868.587  
 129030508.471   100543262.6914   24553690.264 6  24553690.09841  24553696.77741
      1196.988         932.732  
 01 12 19 14 54 29.0000000  0  9G10G25G30G 5G 6G29G17G24G 1         
 130185289.469   101443109.5414   24773438.862 5  24773437.71941  24773444.39541
      2602.817        2028.177  
 113018988.953    88066759.2884   21506797.010 7  21506796.75745  21506800.76745
       394.232         307.193  
 108281265.836    84375029.2154   20605239.602 8  20605239.98645  20605242.74445
     -2318.240       -1806.435  
 123135478.522    95949733.2334   23431903.266 6  23431901.68542  23431906.99742
     -3750.237       -2922.221  
 107009760.561    83384243.1764   20363277.185 8  20363276.91745  20363280.67546
       380.819         296.738  
 127340442.541                    24232075.562 4                                
     -3123.951                  
 132570306.288   103301553.9784   25227290.513 4  25227289.68241  25227300.57241
      3454.082        2691.579  
 120620023.733    93989651.0334   22953227.492 7  22953227.20943  22953231.41643
     -2398.784       -1869.183  
 129029311.528   100542330.0074   24553462.564 6  24553461.85141  24553469.47141
      1196.628         932.440  
 01 12 19 14 54 30.0000000  0  9G10G25G30G 5G 6G29G17G24G 1         
 130182687.325   101441081.8964   24772944.913 5  24772943.37741  24772949.15941
      2601.884        2027.437  
 113018594.821    88066452.1774   21506722.563 7  21506721.80545  21506725.75345
       393.805         306.853  
 108283584.223    84376835.7524   20605681.200 8  20605681.18445  20605683.91845
     -2318.663       -1806.758  
 123139228.626    95952655.3854   23432616.021 6  23432615.39042  23432620.52842
     -3750.299       -2922.314  
 107009380.111    83383946.7254   20363204.820 8  20363204.46146  20363208.28946
       379.899         296.023  
 127343567.150                    24232667.696 4                                
     -3124.623                  
 132566852.066   103298862.3754   25226633.644 4  25226634.08541  25226643.80341
      3454.249        2691.602  
 120622422.684    93991520.3444   22953683.953 7  22953683.82343  22953688.17643
     -2399.189       -1869.494  
 129028115.265   100541397.8584   24553234.759 6  24553234.52241  24553241.41741
      1195.797         931.723  
 01 12 19 14 54 31.0000000  0  9G10G25G30G 5G 6G29G17G24G 1         
 130180085.436   101439054.4674   24772449.639 5  24772447.75141  24772452.23641
      2601.604        2027.222  
 113018201.243    88066145.4934   21506647.201 7  21506646.95145  21506650.72845
       393.294         306.458  
 108285902.992    84378642.5844   20606122.423 8  20606122.53045  20606125.19045
     -2318.974       -1806.983  
 123142978.829    95955577.6334   23433330.421 6  23433329.21042  23433334.36642
     -3750.225       -2922.271  
 107009000.089    83383650.6054   20363132.560 7  20363132.16546  20363135.97746
       379.815         295.946  
 127346691.917                    24233264.000 4                                
     -3125.168                  
 132563397.696   103296170.6774   25225974.529 4  25225976.00241  25225987.53841
      3454.207        2691.617  
 120624822.055    93993389.9814   22954140.795 7  22954139.86443  22954144.93043
     -2399.685       -1869.855  
 129026919.467   100540466.0704   24553007.412 6  24553007.08241  24553014.07541
      1195.475         931.526  
 01 12 19 14 54 32.0000000  0  9G10G25G30G 5G 6G29G17G24G 1         
 130177483.613   101437027.0794   24771952.192 5  24771951.63341  24771958.56241
      2602.327        2027.847  
 113017808.125    88065839.1684   21506572.266 7  21506572.09445  21506575.99145
       393.092         306.298  
 108288222.038    84380449.6334   20606563.790 8  20606563.78545  20606566.53545
     -2319.028       -1807.028  
 123146729.046    95958499.8724   23434044.381 6  23434043.03742  23434048.15542
     -3750.208       -2922.213  
 107008620.402    83383354.7434   20363060.075 8  20363059.90245  20363063.75045
       379.632         295.828  
 127349816.907                    24233857.175 4                                
     -3125.113                  
 132559943.179   103293478.8384   25225317.364 4  25225318.64441  25225332.38741
      3454.981        2692.235  
 120627221.773    93995259.8914   22954597.961 7  22954596.96343  22954601.55543
     -2399.830       -1869.976  
 129025724.046   100539534.5734   24552779.695 6  24552779.80541  24552786.06742
      1195.448         931.534  
 01 12 19 14 54 33.0000000  0  9G10G25G30G 5G 6G29G17G24G 1         
 130174882.386   101435000.1064   24771456.489 5  24771454.83441  24771465.07041
      2600.861        2026.611  
 113017415.834    88065533.4884   21506497.661 7  21506497.32845  21506501.43245
       391.545         305.093  
 108290541.764    84382257.2124   20607004.806 8  20607005.15845  20607007.96245
     -2320.215       -1807.965  
 123150479.625    95961422.4054   23434758.241 6  23434756.70042  23434762.08442
     -3750.833       -2922.740  
 107008241.434    83383059.4474   20362987.786 8  20362987.69646  20362991.72745
       378.672         295.046  
 127352942.291                    24234454.140 4                                
     -3126.351                  
 132556488.875   103290787.1764   25224661.619 4  25224661.13441  25224673.11441
      3453.955        2691.502  
 120629622.221    93997130.3704   22955053.739 7  22955053.34543  22955058.20743
     -2400.984       -1870.936  
 129024529.459   100538603.7314   24552552.550 6  24552552.41941  24552558.49842
      1194.037         930.421  
 01 12 19 14 54 34.0000000  0  9G10G25G30G 5G 6G29G17G24G 1         
 130172281.479   101432973.4494   24770959.957 5  24770960.77341  24770970.86041
      2600.607        2026.443  
 113017024.275    88065228.3784   21506423.285 7  21506422.63945  21506426.95745
       391.208         304.857  
 108292862.114    84384065.2784   20607446.574 8  20607446.55345  20607449.60145
     -2320.685       -1808.323  
 123154230.526    95964345.1734   23435471.278 6  23435470.83542  23435476.31642
     -3751.127       -2922.898  
 107007863.145    83382764.6774   20362915.827 7  20362915.69145  20362919.72545
       377.902         294.468  
 127356068.170                    24235048.506 4                                
     -3127.107                  
 132553034.715   103288095.6254   25224005.444 4  25224004.74841  25224015.34841
      3453.679        2691.201  
 120632023.320    93999001.3634   22955510.391 7  22955510.27443  22955514.75143
     -2401.467       -1871.250  
 129023335.544   100537673.4014   24552325.487 6  24552324.77841  24552331.57242
      1193.494         930.012  
